projectid,teacher_acctid,schoolid,school_ncesid,school_latitude,school_longitude,school_city,school_state,school_zip,school_metro,school_district,school_county,school_charter,school_magnet,school_year_round,school_nlns,school_kipp,school_charter_ready_promise,teacher_prefix,teacher_teach_for_america,teacher_ny_teaching_fellow,primary_focus_subject,primary_focus_area,secondary_focus_subject,secondary_focus_area,resource_type,poverty_level,grade_level,fulfillment_labor_materials,total_price_excluding_optional_support,total_price_including_optional_support,students_reached,eligible_double_your_impact_match,eligible_almost_home_match,date_posted,is_exciting,at_least_1_teacher_referred_donor,fully_funded,at_least_1_green_donation,great_chat,three_or_more_non_teacher_referred_donors,one_non_teacher_referred_donor_giving_100_plus,donation_from_thoughtful_donor,great_messages_proportion,teacher_referred_count,non_teacher_referred_count
0c82a1c6603112667e4c5c6a2df8613c,a2a7cab61dc239a7cb50f6c51210e963,d6c29e869b09d86f191fa2b6b0eccf08,1.72406E+11,40.194,-88.400909,Mahomet,IL,61853,,Mahomet-seymour Cmty SD 3,Champaign,f,f,f,f,f,f,Mrs.,f,f,Literacy,Literacy & Language,Special Needs,Special Needs,Books,moderate poverty,Grades PreK-2,35,456.92,537.55,35,f,f,5/10/12,f,f,t,t,t,t,t,f,100,0,4
0c8256230867c9e6c4a88894c9d673a4,6d75e53057557a147e00a756d599fbbd,a7098147a0f82626127e10adc2ed8719,4.50252E+11,32.327248,-81.041424,Hardeeville,SC,29927,rural,Jasper Co School District,Jasper,f,f,f,f,f,f,Ms.,f,f,Music,Music & The Arts,,,Technology,highest poverty,Grades 6-8,35,269.13,316.62,100,f,f,11/8/11,f,f,t,t,t,t,t,f,80,0,7
0c824917171e029f6f3824833f663f4b,2efba89aa96d7fc3ba63637aa329a706,6ca52178ad6e7a845a9db9adcc48135b,,40.813381,-73.913857,Bronx,NY,10455,,,Bronx,f,f,f,f,f,f,Mr.,f,t,Literacy,Literacy & Language,,,Supplies,highest poverty,Grades PreK-2,,166.97,203.62,20,f,f,8/2/04,f,f,t,t,f,f,t,f,,0,1
0c8239a4e7e836a6da05c6b12802f4c6,8f5567ee89a9e9b766f9f3b224a37ad8,33f27970dfa739ffecf2ea4676db5d17,2.50279E+11,42.294639,-71.049865,Dorchester,MA,2122,urban,Boston Public School District,Suffolk,f,f,f,f,f,f,Mrs.,f,f,Mathematics,Math & Science,Literacy,Literacy & Language,Technology,high poverty,Grades 3-5,9,678,826.83,20,f,f,5/12/09,f,f,t,t,t,t,t,f,100,0,17
0c8237b3b0e1a8c67fd9b34435a48db2,da65833226137645b9fa6a8686af62d7,0ee52ad1a558be8ccb37a0a59c82620d,,39.177303,-84.48111,Cincinnati,OH,45237,urban,[County run],Hamilton,t,f,f,f,f,f,Mrs.,f,f,Literacy,Literacy & Language,,,Other,high poverty,Grades PreK-2,30,313.18,368.45,25,t,f,7/22/13,f,f,f,f,f,t,f,f,50,0,5
0c8235cc4c09e1400f7b5732f5a4e93a,b01c4c6eff5f1b4217c1337a5ea0a6e7,d5072c7bb2bf7854e63e720ba83182b6,2.20183E+11,30.919324,-93.285289,Rosepine,LA,70659,,Vernon Parish School District,Vernon,f,f,f,f,f,f,Mr.,f,f,Performing Arts,Music & The Arts,,,Technology,highest poverty,Grades 9-12,35,547.97,644.67,135,f,f,9/6/11,t,t,t,t,t,f,t,f,66,2,1
0c82306d59266e9ade9825d52d528ef9,610ef05e4b30ad6f8609ce239be1dd1e,ba3950edd80d81bbbb6d14536fd0eba2,50612000327,36.122545,-93.996314,Fayetteville,AR,72703,urban,Fayetteville School District 1,Washington,f,f,f,f,f,f,Mr.,f,f,Applied Sciences,Math & Science,Mathematics,Math & Science,Supplies,moderate poverty,Grades 6-8,35,945.94,1112.87,300,f,f,9/28/11,f,f,t,f,f,f,t,f,0,0,2
0c820e25cebac3b9bdfb8278c5eaff07,cb908a48cfdf89c4475f6aaa7c3f538d,e3156e8746dcf227fb9aea2686f52419,1.70993E+11,41.862602,-87.659437,Chicago,IL,60608,urban,Chicago Psd-Area 52/53,Cook,t,f,f,f,f,f,Ms.,f,f,Literature & Writing,Literacy & Language,,,Books,highest poverty,Grades 9-12,35,436.33,513.33,150,f,f,7/16/12,f,f,t,f,f,f,t,f,0,0,1
0c8207dae05c6a8ec8acba08d5c8f8ad,73af63cbb18250d9ed238d7406d6e0d5,24826f1ca04870fca17c731ef2877a62,4.8264E+11,30.453825,-97.981487,Lago Vista,TX,78645,rural,Lago Vista Ind School District,Travis,f,f,f,f,f,f,Mrs.,f,f,Literacy,Literacy & Language,Environmental Science,Math & Science,Books,moderate poverty,Grades PreK-2,9,348.67,425.21,21,f,f,9/23/09,f,,f,,f,,,,,,
0c81cb1850456d2e5a761a5f346202d6,8a1ea71e11d97732f0afc16d76aba4fe,c9a028853133db742f9577126b8c60ea,4.83726E+11,35.295296,-101.870605,Amarillo,TX,79108,rural,River Road Ind School Dist,Potter,f,f,f,f,f,f,Mrs.,f,f,Literacy,Literacy & Language,Literature & Writing,Literacy & Language,Supplies,highest poverty,Grades 3-5,30,828.78,975.04,25,f,f,8/31/13,t,t,t,t,t,f,t,f,66,3,2
0c81548ce90cdc32eeaf1ecec418fb4d,da4d5febe3b91be6f5c9f361340d3e47,a70593f80497659af7c700f5e5d19fc9,1.70942E+11,40.13637,-88.273081,Champaign,IL,61821,urban,Champaign Cmty Unit Sch Dist 4,Champaign,f,f,f,f,f,f,Ms.,f,f,Music,Music & The Arts,Performing Arts,Music & The Arts,Supplies,highest poverty,Grades 3-5,17,75,91.46,380,f,f,10/23/07,f,f,t,f,f,f,f,f,,0,1
0c815257dfba19b3d78601227f628819,3be23f921dec61c2e81310cfcc8e2353,d6b5f4ac325deaabc8bb860bd55679ab,61473001794,33.90918,-117.925346,Fullerton,CA,92835,urban,Fullerton School District,Orange,f,f,f,f,f,f,Mrs.,f,f,Mathematics,Math & Science,,,Technology,moderate poverty,Grades 3-5,30,643.9,757.53,31,f,f,11/19/12,f,,f,,f,,,,,,
0c81263fb895e477d9d48fc72c18c42c,bdd02c346f6c687f00e5ffca3db827e1,6fcde8c3ad521b080829b75b862b8b96,3.60008E+11,40.79171,-73.943321,New York,NY,10029,urban,New York City Dept Of Ed,New York (Manhattan),f,t,f,f,f,f,Mrs.,f,f,Foreign Languages,Literacy & Language,Foreign Languages,Literacy & Language,Other,highest poverty,Grades 9-12,9,122.51,149.4,146,t,f,1/25/10,f,f,t,t,f,f,f,f,50,0,2
0c812465320bfad355c8d9b8925a6cbc,87fee3d6b2c7571a4fa989091eff4449,14c53146cc590d60420cd25199c6c5a4,2.80228E+11,31.606801,-89.197829,Ellisville,MS,39437,rural,Jones Co School District,Jones,f,f,f,f,f,f,Mrs.,f,f,Health & Life Science,Math & Science,Health & Wellness,Health & Sports,Other,low poverty,Grades 3-5,17,422,514.63,25,t,f,3/7/08,f,,f,,f,,,,,,
0c80f52cc9a957f35250831e219bd743,3d99e0ff7db0b072d02de739c5f35718,ce44b4f6489a4b0855b246f6254ac0a3,62271012566,34.057873,-118.297808,Los Angeles,CA,90005,urban,Los Angeles Unif Sch Dist,Los Angeles,f,f,f,f,f,f,Mrs.,f,f,College & Career Prep,Applied Learning,Economics,History & Civics,Technology,highest poverty,Grades 3-5,30,1473.89,1733.99,79,f,f,9/8/12,f,t,f,t,f,t,t,f,12,2,5
0c80e7ce5e94ce956899ebcf599ad190,6a92836edf7d244c4ec53a434025d216,6dc7f03c98196a862eafef525fe57f42,1.74007E+11,41.6863,-88.135686,Bolingbrook,IL,60490,suburban,Valley View Cmty SD 365-u,Will,f,f,f,f,f,f,Mrs.,f,f,Literature & Writing,Literacy & Language,Social Sciences,History & Civics,Supplies,moderate poverty,Grades 3-5,9,147.33,179.67,28,t,f,3/5/10,f,f,f,t,t,f,f,f,100,0,1
0c80e04b48783b9b9a3ff68bde50176c,d31d3edbaf022973806d0e5130f9062a,52a0df90708e70a4c2bf77dfd9e2e372,1.20042E+11,27.153376,-81.883171,Arcadia,FL,34266,,Desoto Co School District,De Soto,f,f,f,f,f,f,Mrs.,f,f,Literature & Writing,Literacy & Language,Mathematics,Math & Science,Supplies,highest poverty,Grades PreK-2,35,389.24,457.93,21,t,f,8/31/11,f,,f,,f,,,,,,
0c80d4d1331deb425f3c4c505e963702,28f1d3cc5398c5221c535a7205175c35,8962a2fe4c14b4dd629271cfac943ce2,1.20105E+11,28.815189,-81.549925,Sorrento,FL,32776,rural,Lake Co School District,Lake,f,f,f,f,f,f,Ms.,f,f,Literature & Writing,Literacy & Language,Literacy,Literacy & Language,Technology,high poverty,Grades 3-5,30,352.57,414.79,65,f,f,10/29/12,f,t,t,t,f,t,t,f,58,9,4
0c80d2dfed6e97523043768933b67afb,1d08c5cc7c1bbf9c16b3cd1a2646d895,f7ab0d1fc36603584f799983e80862aa,3.61098E+11,40.7077,-73.45903,N Massapequa,NY,11758,suburban,Farmingdale Union Free SD,Nassau,f,f,f,f,f,f,Mr.,f,f,Music,Music & The Arts,Performing Arts,Music & The Arts,Supplies,low poverty,Grades 3-5,35,248.15,291.94,120,f,f,6/2/12,f,f,t,f,f,f,t,f,50,0,2
0c80cdb5a279a8cc540e51fbb570ca74,511f281f0af03cb38e94b9df80427a13,69a6a79ebd594c31b0dc6c19803ccedc,4.8389E+11,30.270224,-100.650221,Del Rio,TX,78840,rural,San Felipe-del Rio Cons Ind SD,Val Verde,f,f,f,f,f,f,Mrs.,f,f,Literature & Writing,Literacy & Language,,,Books,highest poverty,Grades PreK-2,9,314.51,383.55,21,t,f,9/19/09,f,,f,,f,,,,,,
0c80b5a6553bfe66e3f16a4c26563635,d0aad62f4d12a4f1f65e543de08fd282,0ca3605a46fdb13c739da91ad35b491a,3.70192E+11,35.935879,-80.02597,High Point,NC,27260,urban,Guilford Co School District,Guilford,f,f,f,f,f,f,Mrs.,f,f,Literacy,Literacy & Language,Other,Applied Learning,Other,highest poverty,Grades 3-5,35,470.45,553.47,75,f,f,2/3/11,f,f,f,f,t,t,f,f,66,0,3
0c80b39a076ab88c57a9cd19194b1971,50440fa11fac6d5b0ba3a52195b3e589,13deb0c7c20264c59f0572034ebcc618,3.60008E+11,40.79339,-73.942654,New York,NY,10029,urban,New York City Dept Of Ed,New York (Manhattan),f,f,f,f,f,f,Ms.,f,f,Literacy,Literacy & Language,,,Technology,highest poverty,Grades PreK-2,35,631.82,726.23,25,f,t,6/16/10,f,,f,,f,,,,,,
0c80ab9de43f8de7a2987a373a329d11,df0825206645ca0f89f02d3721581d18,fbc179783bfa9f5bcb585ad73fcd178d,2.62619E+11,42.458267,-83.186478,Oak Park,MI,48237,suburban,Oak Park School District,Oakland,f,f,f,f,f,f,Mr.,f,f,Applied Sciences,Math & Science,Mathematics,Math & Science,Technology,highest poverty,Grades 6-8,30,2085,2452.94,160,f,t,11/16/13,f,f,t,f,f,f,t,f,50,0,2
0c8096b5d6b0d5ede67eca5d12bc7eee,25a66305a5624883139df241ea09dc56,cf3b32abf13375b6a04f6b9220648867,1.30306E+11,33.215989,-82.397012,Wrens,GA,30833,rural,Jefferson Co School District,Jefferson,f,f,f,f,f,f,Mrs.,f,f,Early Development,Applied Learning,Mathematics,Math & Science,Supplies,highest poverty,Grades PreK-2,30,339.95,399.94,24,f,f,7/16/13,f,t,f,t,t,f,f,f,75,2,2
0c809603f076c5c8469e052cbeed5e61,4eea9607482a57c2f8f2b3dd325016c6,22fb858d2c3ef041090232cbfa8c0c89,4.03024E+11,36.231463,-95.993669,Tulsa,OK,74126,urban,Tulsa Independent Sch Dist,Tulsa,f,f,t,f,f,f,Ms.,t,f,Extracurricular,Applied Learning,Literature & Writing,Literacy & Language,Technology,highest poverty,Grades 3-5,9,182.99,223.16,150,t,f,9/18/09,f,f,t,t,f,t,t,f,0,0,3
0c808ae34da8cbda55b27281bab64fbc,bf5489b097d46b36e3a0f674c5beb5c7,ed73cfa3b0222a3a4064ca91c51cea22,4.11004E+11,45.524555,-122.580101,Portland,OR,97220,urban,Portland School District 1j,Multnomah,f,f,f,f,f,f,Ms.,f,f,Applied Sciences,Math & Science,Environmental Science,Math & Science,Supplies,highest poverty,Grades PreK-2,30,1485.42,1747.55,50,f,f,9/3/12,f,f,t,f,t,f,t,f,100,0,1
0c807a105e47688ba8410fcf8a51f339,163fd6a68721bb57b485e70a7fc5ff09,e36c1536258303b435fb4717b308a22e,5.5096E+11,43.139758,-88.010448,Milwaukee,WI,53223,urban,Milwaukee Public Schools,Milwaukee,t,f,f,f,f,f,Mr.,f,f,Literacy,Literacy & Language,Literature & Writing,Literacy & Language,Books,highest poverty,Grades 9-12,35,440.06,517.72,180,f,f,12/8/11,f,f,t,t,f,f,t,f,50,0,1
0c8069ea6874cce914f2666cfd0653ab,b5d183c3e7ba56ccbe083ba91ea7a7bf,45c4dbf5236beb087644defa49a966bc,3.70399E+11,36.332155,-79.94813,Madison,NC,27025,,Rockingham Co School District,Rockingham,f,f,f,f,f,f,Mr.,f,f,Other,Applied Learning,,,Technology,high poverty,Grades 3-5,,564.78,688.76,25,f,f,10/24/06,f,,f,,f,,,,,,
0c80551040a14cb6fb247d1a6c616c9c,5bc69e701435fcdd62f518b46248f5d4,a6c3a199c4a2bf2cf726976d4a3a55f2,5.51533E+11,42.988336,-89.537642,Verona,WI,53593,suburban,Verona Area School District,Dane,f,f,f,f,f,f,Ms.,f,f,ESL,Literacy & Language,,,Other,high poverty,Grades PreK-2,35,368.94,434.05,14,t,f,2/18/11,f,,f,,f,,,,,,
0c804ea9e852621fceb807862cd378a9,800f235d978d1e06d72e37d46e828729,27636f03be87dc276cddba1ae3dd511c,3.70472E+11,35.933502,-78.630356,Raleigh,NC,27614,rural,Wake Co School District,Wake,f,f,t,f,f,f,Mrs.,f,f,Special Needs,Special Needs,Sports,Health & Sports,Other,moderate poverty,Grades 3-5,,221.4,270,4,f,f,3/11/05,f,f,t,t,f,f,t,f,,0,1
0c802bf28fe30cf17322b4b449c81968,90b45427a5d70246e66ef1c45dab588e,0b05158bcda69cc734e3b0d1d92eecd2,3.90459E+11,41.60709,-80.584938,Andover,OH,44003,rural,Pymatuning Valley Local SD,Ashtabula,f,f,f,f,f,f,Mrs.,f,f,Literacy,Literacy & Language,Literature & Writing,Literacy & Language,Technology,highest poverty,Grades PreK-2,30,476.8,560.94,400,f,f,5/9/12,f,f,t,t,t,t,t,f,100,0,4
0c7fd4dada8c9e3280aa27bfea44f160,a5418e03e64416e074b64b679c0467ff,86f30c02d2560ee69271a18e704af047,2.50936E+11,42.539858,-71.002942,Peabody,MA,1960,urban,Peabody Public School District,Essex,f,f,f,f,f,f,Ms.,f,f,Literature & Writing,Literacy & Language,Visual Arts,Music & The Arts,Supplies,moderate poverty,Grades PreK-2,35,142.07,167.14,23,f,f,11/20/11,f,f,t,t,f,t,f,f,60,0,4
0c7f8a99ff7e5bb8c96fe37ecc549dc9,e33e452df5eae1bf37fb88b93d27bd9c,5ad87319187730ef8e7a38e6e5a30557,63789006389,35.431974,-119.015723,Bakersfield,CA,93308,suburban,Standard School District,Kern,f,f,f,f,f,f,Mrs.,f,f,Literacy,Literacy & Language,,,Books,highest poverty,Grades 3-5,30,478.72,563.2,25,f,f,3/26/13,f,f,t,t,t,t,t,f,100,0,3
0c7f73e306594f32d929065cbb87e418,a03d26d61815a8ac1c0ab35920c0ed72,23660028daa4da6a720c17450c47b9f2,3.70297E+11,35.25013,-80.944046,Charlotte,NC,28214,urban,Charlotte-mecklenburg Sch Dist,Mecklenburg,f,t,f,f,f,f,Ms.,f,f,Mathematics,Math & Science,Literature & Writing,Literacy & Language,Technology,highest poverty,Grades 3-5,30,270.59,318.34,40,f,f,10/22/12,f,f,t,t,t,t,t,f,83,0,9
0c7f292acf3dc33670c389c8485111b7,1f98a94c936a9d8c8ddaccfa83a4c42a,c17e58f715e2faaeba1f4d7f0a5463e9,60639007503,35.34643,-119.121806,Bakersfield,CA,93311,urban,Panama-buena Vista Union SD,Kern,f,f,f,f,f,f,Mrs.,f,f,Mathematics,Math & Science,Applied Sciences,Math & Science,Supplies,moderate poverty,Grades 3-5,30,244.55,287.71,30,t,f,11/15/13,f,f,t,t,f,t,t,f,0,0,3
0c7edaf4929ea8759616f16d473468d0,04047ce6fd42e05af437164f425679fd,121395e5fd9518f3372211454961baae,60001909276,37.721535,-121.932655,Dublin,CA,94568,suburban,Dublin Unified School District,Alameda,f,f,f,f,f,f,Mr.,f,f,Mathematics,Math & Science,Applied Sciences,Math & Science,Supplies,moderate poverty,Grades 3-5,35,808.48,929.29,30,f,f,7/19/10,f,f,t,t,t,f,t,f,100,0,1
0c7ed1b23cb5722403998985f076ffe7,ee3dc68d53966d4312830f4af1916257,d4c816c1c71607820ec697416ea75245,4.80001E+11,29.946979,-97.895196,San Marcos,TX,78666,,Hays Cons Ind School District,Hays,f,f,f,f,f,f,Mrs.,f,f,Literacy,Literacy & Language,Mathematics,Math & Science,Technology,highest poverty,Grades PreK-2,30,771.3,907.41,23,f,f,9/16/13,f,,f,,f,,,,,,
0c7e9922fb0b4c15474da70cd6d59cf7,c85846e070b6117b433f85ac173b3d11,b04f464e14b6ca1431619fafc2a2c07e,20018000123,61.179821,-149.903473,Anchorage,AK,99503,urban,Anchorage School District,Anchorage,f,f,f,f,f,f,Mrs.,f,f,Literacy,Literacy & Language,Mathematics,Math & Science,Supplies,highest poverty,Grades PreK-2,30,513.08,603.62,20,f,f,11/16/13,f,f,t,t,t,t,t,f,100,0,4
0c7e92646d6f459687a3d7855973718d,dbf584bee61465d840943e45f08e49b1,32d1d6650505f8ce253f868156a57eac,,32.907746,-80.122484,N Charleston,SC,29418,,Dorchester Co School Dist 2,Dorchester,f,f,f,f,f,f,Mrs.,f,f,History & Geography,History & Civics,Literature & Writing,Literacy & Language,Other,moderate poverty,Grades 3-5,17,163,198.78,25,f,f,9/11/07,f,f,t,t,f,f,t,f,,0,2
0c7e86be3d4c300aaf068a2b450f62a4,274f0614b65cb15597f02f28082b04db,f8de20c6f1a6d446e56fa7b67794f1ac,4.01359E+11,36.684101,-101.48564,Guymon,OK,73942,,Guymon School District 8,Texas,f,f,f,f,f,f,Mrs.,f,f,Applied Sciences,Math & Science,Environmental Science,Math & Science,Supplies,highest poverty,Grades 3-5,17,258,314.63,22,t,f,7/20/08,f,f,t,t,f,f,t,f,0,0,2
0c7e75dffedb4f753ff856c7d4b768c6,6ac7707ba8b768f746a91dd6befb2a2d,bf3aba4721c20d560fb3e0577b9807d1,1.20015E+11,28.024798,-80.658211,Palm Bay,FL,32907,urban,Brevard Co School District,Brevard,f,f,f,f,f,f,Mrs.,f,f,Mathematics,Math & Science,,,Supplies,high poverty,Grades PreK-2,35,327.32,385.08,18,t,f,6/26/11,f,f,f,t,f,f,f,f,0,0,1
0c7e419e1ccaf229fc73033241fdaf57,80fd7dd83a0a8e3c24cb5c5f48ca8731,c269727cc13a64a839a8a2ae8af0c5e4,3.6001E+11,40.690384,-73.904533,Brooklyn,NY,11207,urban,New York City Dept Of Ed,Kings (Brooklyn),f,f,f,f,f,f,Ms.,f,f,Music,Music & The Arts,Music,Music & The Arts,Technology,highest poverty,Grades 6-8,17,7923.3,9662.56,200,f,f,2/13/09,f,f,f,t,t,t,t,f,100,0,5
0c7e1bfc655da820b260eeedf1a329b5,eb325a20e0021b25ac80a6d38a0a3c42,9cf9ce8bb16b97ba2e3099990ca1e65f,2.40009E+11,39.307921,-76.579841,Baltimore,MD,21213,urban,Baltimore City Public Sch Dist,Baltimore City,f,f,f,t,f,f,Mr.,f,f,Literacy,Literacy & Language,,,Supplies,highest poverty,Grades 3-5,9,265.26,323.49,40,f,f,10/16/09,f,f,t,t,f,t,t,f,40,0,4
0c7e01de272c2de64328b5097783072a,d4ea3dae9ef23ce079caaaf427e01b72,eb6e54e3ac5aa83727525e173278df90,1.30042E+11,32.798569,-83.651299,Macon,GA,31206,urban,Bibb Co School District,Bibb,f,f,f,f,f,f,Ms.,f,f,Literacy,Literacy & Language,Character Education,Applied Learning,Books,highest poverty,Grades 3-5,35,500.49,588.81,35,f,t,12/2/11,f,f,t,t,f,t,t,f,33,0,3
0c7dec8f1a29baf974d712af8860a07f,6d80ea792756c92b670d7cd28d0dd30c,c25a4f6b2e0bcec2d02e35f524aa61e2,61954002355,35.358046,-119.011699,Bakersfield,CA,93304,urban,Kern High School District,Kern,f,f,f,f,f,f,Mrs.,f,f,Health & Life Science,Math & Science,,,Supplies,highest poverty,Grades 9-12,30,870.12,1023.67,60,f,f,9/17/12,f,f,t,f,f,f,t,f,0,0,1
0c7dbd92f549b867ab41c2a94a964c9f,c79495ef71a2d12238f2b754892c30b1,b74ff738ff6dff9943701adbaac7efc7,3.60008E+11,40.773753,-73.985376,New York,NY,10023,urban,New York City Dept Of Ed,New York (Manhattan),f,f,f,f,f,f,Ms.,f,f,Literacy,Literacy & Language,Literature & Writing,Literacy & Language,Technology,highest poverty,Grades 9-12,17,1013,1235.37,120,t,f,3/15/09,f,f,t,t,f,t,t,f,0,0,4
0c7dac748fb8e270e987511d3314db58,b847072413b4ac23c5938aaf70599dd5,aab51428477d4c329beedfdf77bf186b,3.60008E+11,40.721218,-73.986632,New York,NY,10002,urban,New York City Dept Of Ed,New York (Manhattan),f,f,f,f,f,f,Ms.,f,f,Social Sciences,History & Civics,,,Other,highest poverty,Grades PreK-2,35,300.74,353.81,125,t,f,2/15/11,t,t,t,t,t,t,t,f,66,4,3
0c7d7ca69228f7c8d5aa9b421829af42,f5a2a63c3e2ad9ee67049851661e9fe9,c534707bbcd3137123f57e75d95de413,1.30102E+11,32.096867,-81.262115,Pooler,GA,31322,rural,Savannah-chatham Co Sch Dist,Chatham,f,f,f,f,f,f,Mrs.,f,f,Literacy,Literacy & Language,Literature & Writing,Literacy & Language,Books,high poverty,Grades 3-5,35,443.96,522.31,29,f,t,9/10/11,f,t,t,t,f,t,t,f,33,1,5
0c7d71e2a25eb8bc5f49ee66fa68432f,36a8e9c79fc0599b8bf6aefc6ad37596,c534707bbcd3137123f57e75d95de413,1.30102E+11,32.096867,-81.262115,Pooler,GA,31322,rural,Savannah-chatham Co Sch Dist,Chatham,f,f,f,f,f,f,Mrs.,f,f,Visual Arts,Music & The Arts,Special Needs,Special Needs,Supplies,high poverty,Grades PreK-2,30,372.65,438.41,7,t,t,6/10/12,f,f,t,t,f,t,t,f,28,0,6
0c7d6534baa3729261b4cd8869631769,22f62c92847ba7a546203f39f7477d79,75cd8edc4fb5b3c2e91debaf0650fc38,3.70444E+11,35.374433,-83.518688,Bryson City,NC,28713,rural,Swain Co School District,Swain,f,f,f,f,f,f,Mrs.,f,f,Health & Life Science,Math & Science,Literacy,Literacy & Language,Books,high poverty,Grades 3-5,35,511.49,601.75,40,t,f,4/12/11,f,,f,,f,,,,,,
0c7d547bff313cb519cdca492cd85611,c19a6f7d6c40bc490dd43b054feaf6a6,f2c29a8afeb445c584042914a12d11c5,2.50279E+11,42.323654,-71.073128,Roxbury,MA,2119,urban,Boston Public School District,Suffolk,f,f,f,f,f,f,Mrs.,f,f,Visual Arts,Music & The Arts,,,Supplies,highest poverty,Grades PreK-2,17,204,248.78,15,f,f,12/28/07,f,f,t,f,f,t,t,f,,0,3
0c7d1ef5da6d394e31c7a05181be9366,6a8b2db6a9a78c2e14300290684c2fc5,cbd309034a9d562bf5b947525aada787,4.50258E+11,34.95042,-80.864984,Indian Land,SC,29707,rural,Lancaster Co School District,Lancaster,f,f,f,f,f,f,Mrs.,f,f,Literacy,Literacy & Language,,,Books,moderate poverty,Grades 6-8,17,600,731.71,90,f,f,8/27/07,f,f,t,f,f,f,t,f,,0,1
0c7cd06d3d404b223a19005deebfaef8,242dff01e8127a10c1a63689d81a5e33,9495060398aebb32a8e9f12d0334233a,4.7003E+11,35.759505,-83.867452,Maryville,TN,37804,,Blount Co School District,Blount,f,f,f,f,f,f,Mrs.,f,f,Literature & Writing,Literacy & Language,Literacy,Literacy & Language,Books,high poverty,Grades 9-12,9,289.53,353.09,200,t,f,11/4/09,f,f,t,t,f,t,t,f,25,0,3
0c7cbc5e8f85eecd9af920f0dd00fde1,e67aa880b205748d30fbd4a10e8887ea,744fa7df544ccd65d6a4d36fb746fa02,1.30321E+11,33.046893,-84.177075,Barnesville,GA,30204,,Lamar Co School District,Lamar,f,f,f,f,f,f,Mrs.,f,f,Special Needs,Special Needs,Applied Sciences,Math & Science,Technology,highest poverty,Grades 9-12,35,1454.65,1711.35,20,t,f,11/10/11,f,f,t,t,f,t,t,f,33,0,4
0c7c9459e917d9ea116e166a69d4a1ae,bbf9bf9b60a645314ab74b2c9fef1498,4d4ee575b8ebfed5dbc647f36c7574d4,51311001073,33.456151,-94.02076,Texarkana,AR,71854,urban,Texarkana Arkansas Sch Dist 7,Miller,f,f,f,f,f,f,Mrs.,f,f,Literacy,Literacy & Language,Visual Arts,Music & The Arts,Technology,highest poverty,Grades 6-8,30,645.59,759.52,279,f,f,1/20/13,f,f,f,f,t,f,f,f,100,0,1
0c7c509e219ba66fc963b76a03ed8002,7a96be1776e2a39214ed07e5ff27a5fb,c0d16b955ad7139d912f8d40b13c4746,4.81984E+11,30.289377,-98.856232,Fredericksbrg,TX,78624,,Fredericksburg Ind School Dist,Gillespie,f,f,f,f,f,f,Mrs.,f,f,Special Needs,Special Needs,Early Development,Applied Learning,Technology,high poverty,Grades 3-5,30,1011.31,1189.78,7,f,f,12/10/13,f,f,f,f,t,f,f,f,100,0,1
0c7c2dcd5e9031c6e1ebc5b09289243f,75ac1952a4f73f3e7f488a413fc3b7e8,dc914d7140097d80ba7f63c158711d3b,,42.916706,-78.892784,Buffalo,NY,14213,urban,Buffalo City School District,Erie,f,f,f,f,f,f,Ms.,f,f,ESL,Literacy & Language,,,Books,highest poverty,Grades 6-8,30,423.95,498.76,25,f,f,5/12/13,t,t,t,t,t,t,f,t,78,2,12
0c7c06eaad5ac5be4e43f5790c269117,883d4a87d0230193ff31c3db6a6b1c47,1dbe2afc8997fac64fa278e394d80981,4.50228E+11,33.677525,-79.35755,Hemingway,SC,29554,rural,Georgetown Co School District,Georgetown,f,f,f,f,f,f,Mrs.,f,f,Visual Arts,Music & The Arts,Visual Arts,Music & The Arts,Other,highest poverty,Grades 3-5,17,751,915.85,360,f,f,6/4/08,f,f,t,f,f,t,t,f,,0,11
0c7c06576acefc6f4b4f1969fb3d8a97,cf99bd61810e3f5358ddab5c7edc11c5,11b3ffefbf2d3263d51de6f9dc7d7d8a,1.70993E+11,41.918371,-87.645955,Chicago,IL,60614,urban,North-nw Side Hs Network,Cook,f,t,f,f,f,f,Ms.,f,f,Literacy,Literacy & Language,,,Books,highest poverty,Grades 9-12,30,622.88,732.8,999,f,f,10/21/13,f,f,t,t,t,t,t,f,66,0,4
0c7bdbae9cedc0cda0fd4323390e87ea,619ad1209e9c00dd9ef9cff344d9bcb1,f798d6ad165b3305f030676c092cfbc8,4.00423E+11,35.318786,-97.103221,Shawnee,OK,74801,,Bethel School District 3,Pottawatomie,f,f,f,f,f,f,Mrs.,f,f,Mathematics,Math & Science,Visual Arts,Music & The Arts,Supplies,high poverty,Grades PreK-2,35,239.39,281.64,20,f,f,4/20/11,f,f,t,t,t,f,t,f,100,0,2
0c7bcd7bb27cdcd9de4ae87ac07f162e,e0bb56e2fdefa2dfeb83d217d33e0550,e58bc78c507dab6d4a2b1d3ced11211c,1.80657E+11,41.722435,-86.759268,Michigan City,IN,46360,urban,Michigan City Area Schools,La Porte,f,f,f,f,f,f,Mrs.,f,f,Literacy,Literacy & Language,,,Technology,highest poverty,Grades PreK-2,30,346.18,407.27,27,f,f,3/31/13,f,f,t,t,t,t,f,f,100,0,5
0c7bbe5028f81c5df358c458a90b2304,f7d1f61e54f3b037ff995fd09d272ce4,d2f68b6b7459a989bc39c3d506c4aec4,1.20087E+11,27.900429,-82.508684,Tampa,FL,33611,urban,Hillsborough Co Pub Sch Dist,Hillsborough,f,f,f,f,f,f,Mrs.,f,f,Literacy,Literacy & Language,,,Books,high poverty,Grades PreK-2,35,635.69,747.87,15,f,t,6/6/11,f,t,t,t,f,t,t,f,52,10,4
0c7bbaa048e3feb9767eda011130a5c8,aafa55ebe07804c32d6f1eb1cb16105d,ab4cb7bcdd29058f6921cee42651d1a8,4.90033E+11,38.581253,-109.554452,Moab,UT,84532,,Grand Co School District,Grand,f,f,f,f,f,f,Mrs.,f,f,Literacy,Literacy & Language,Mathematics,Math & Science,Technology,high poverty,Grades 3-5,35,408.67,480.79,27,t,f,12/22/10,f,t,f,t,t,f,f,f,100,1,2
0c7b9b19ae037ec5cce03f0b804f45a9,27fc9b30951b443289d0070ae4de2cb3,00c757946bf3b3a59f58c56fcab70d90,4.82022E+11,33.617763,-97.13425,Gainesville,TX,76240,rural,Gainesville Ind School Dist,Cooke,f,f,f,f,f,f,Mrs.,f,f,Literature & Writing,Literacy & Language,Literacy,Literacy & Language,Books,highest poverty,Grades 9-12,30,345.46,406.42,40,t,f,8/28/12,f,f,t,t,f,t,t,f,50,0,4
0c7ad8e23ab1394c1111653333bdfe8f,74cad17f28197953d16420538009260d,26f06df445235904d24b867ae2477f0c,1.80045E+11,39.725758,-86.09552,Beech Grove,IN,46107,suburban,Beech Grove City School Dist,Marion,f,f,f,f,f,f,Mrs.,f,f,Literature & Writing,Literacy & Language,Literacy,Literacy & Language,Books,high poverty,Grades 6-8,30,496.09,583.64,250,t,f,5/25/13,f,f,t,t,f,f,t,f,50,0,2
0c7ac44ac31fb405fea6d803b8aaaa87,e533a6a11bd3f1421c80f3dc6cf00376,a2a1cac6c93eca183d10e012fa1f1929,5.5096E+11,43.024063,-87.915221,Milwaukee,WI,53204,urban,Milwaukee Public Schools,Milwaukee,f,f,f,f,f,f,Mr.,f,f,Health & Life Science,Math & Science,,,Technology,highest poverty,Grades 9-12,30,426.84,502.16,140,t,f,8/17/13,f,t,t,t,f,t,t,f,44,2,6
0c7aa65c654d9986247f3852427dde9f,e97f8757c48cbbf40b7e4e3494db2e74,49abd8a196f43484f776e4db66234300,62271003068,33.793159,-118.303535,Harbor City,CA,90710,urban,Los Angeles Unif Sch Dist,Los Angeles,f,t,t,f,f,f,Ms.,f,f,Mathematics,Math & Science,Literacy,Literacy & Language,Supplies,highest poverty,Grades PreK-2,35,225.87,265.73,26,f,f,2/19/12,f,t,t,t,t,f,f,f,100,1,0
0c7a9643692c83e670b81865f74c67ae,fad90e2c9acbb671fac8b5fe82f9cefc,f6ab820b01a2190a93930f431cf6e7bc,2.91635E+11,37.07819,-94.47957,Joplin,MO,64801,urban,Joplin Schools,Jasper,f,f,f,f,f,f,Mrs.,f,f,Visual Arts,Music & The Arts,,,Supplies,highest poverty,Grades PreK-2,35,286.39,336.93,30,f,f,8/20/11,f,f,t,t,f,f,t,f,50,0,2
0c7a88f398cf3ceecc15f79dc3c76ed0,302e861b0971b4b12286b7ad41f47ed3,c1e514545263abb9f7be76683d59dc70,4.50339E+11,34.166198,-80.928036,Columbia,SC,29229,suburban,Richland Co School District 2,Richland,f,f,f,f,f,f,Mr.,f,f,Literacy,Literacy & Language,Literature & Writing,Literacy & Language,Books,high poverty,Grades 3-5,30,611.95,719.94,120,f,f,12/9/13,t,t,t,t,t,t,t,f,87,5,6
0c7a6572a2f2de7ac112c4b1b8b2e806,035c84ea9b1960d3af886fd2ce44f7cd,4d90f42efe0e48ce36df5b52241a82a2,3.60012E+11,40.665673,-73.897676,Brooklyn,NY,11207,urban,New York City Dept Of Ed,Kings (Brooklyn),f,f,f,f,f,f,Ms.,f,f,Literacy,Literacy & Language,ESL,Literacy & Language,Supplies,highest poverty,Grades 3-5,35,281.18,323.2,30,t,t,8/2/10,f,f,t,t,f,t,t,f,33,0,3
0c7a39fc73d5396ae94381b11ad10ecc,6ec95e25ef488c17ffa0a19aa9daf8ff,8953e52e5982069389abe1d1ee925eb2,3.60384E+11,40.676916,-73.619267,Baldwin,NY,11510,suburban,Baldwin Union Free School Dist,Nassau,f,f,f,f,f,f,Mrs.,f,f,Literature & Writing,Literacy & Language,Environmental Science,Math & Science,Technology,low poverty,Grades PreK-2,9,444.51,542.09,19,t,f,1/3/10,f,f,t,f,f,f,t,f,0,0,2
0c7a22953162d981214da630ed6c9000,2c64f39ae6b68fc5ec00048e2c984cb0,5a08099a629d917c7615a216519165c8,3.70033E+11,35.54487,-77.036277,Washington,NC,27889,,Beaufort Co School District,Beaufort,f,f,f,f,f,f,Mrs.,f,f,Literacy,Literacy & Language,Mathematics,Math & Science,Technology,highest poverty,Grades PreK-2,30,394.26,463.84,18,f,f,12/6/13,t,t,t,t,t,t,f,f,63,5,3
0c79ef3072af206a3e4e9370fa247b96,dd56838ce14c1b433e2776c4ef8d8280,4300f780e95547a129929d4061e8146a,63441006556,37.750886,-122.499706,San Francisco,CA,94116,urban,San Francisco Unified Sch Dist,San Francisco,f,f,f,f,f,f,Ms.,f,f,Literacy,Literacy & Language,Performing Arts,Music & The Arts,Books,moderate poverty,Grades PreK-2,35,888.35,1045.12,20,f,f,12/7/10,t,t,t,t,t,t,t,f,85,4,12
0c79ce38925be5f2b0ac00a1fbe11a55,d398b39a8f781fa4735733739b66f090,0fd88da0d559f2d9359eac90f609e964,62211002627,37.684967,-121.742363,Livermore,CA,94550,suburban,Livermore Valley Joint Unif SD,Alameda,f,f,f,f,f,f,Ms.,f,f,ESL,Literacy & Language,Performing Arts,Music & The Arts,Technology,high poverty,Grades PreK-2,35,196.07,230.67,26,f,f,10/29/11,f,,f,,f,,,,,,
0c79b07cf19ab00ca271ccd843c79f73,e9c5d518ecd52bf4719ef0f2de67240a,92d25a7755b1fb9447c97babf5965df7,2.80462E+11,33.592352,-88.654474,West Point,MS,39773,,West Point School District,Clay,f,f,f,f,f,f,Mrs.,f,f,Literacy,Literacy & Language,Literature & Writing,Literacy & Language,Technology,highest poverty,Grades PreK-2,17,200,243.9,20,f,f,8/27/08,f,f,t,t,t,f,t,f,100,0,1
0c7976cd53b3d4173bba5489878eadaa,c34ee3a38ab29fe0dfe37ec9619fa0de,10179fd362d7b8cf0e89baa1ca3025bb,62271003157,34.043939,-118.288371,Los Angeles,CA,90006,urban,Los Angeles Unif Sch Dist,Los Angeles,f,f,f,f,f,f,Mrs.,f,f,Character Education,Applied Learning,Health & Wellness,Health & Sports,Technology,highest poverty,Grades PreK-2,30,419.76,493.84,20,f,t,12/9/12,f,f,t,t,f,t,t,f,0,0,4
0c7970c34c95342e553b2e26dafada50,ffe40520271cfd90f3edfd2bb545d846,c2be3f484addf3747179504cedf018e7,2.612E+11,42.424977,-83.233043,Detroit,MI,48219,urban,Detroit Public School District,Wayne,f,f,f,f,f,f,Mrs.,f,f,Applied Sciences,Math & Science,Health & Life Science,Math & Science,Other,highest poverty,Grades 6-8,9,427.88,521.8,150,f,f,8/30/09,f,f,t,f,f,t,t,f,0,0,3
0c793a327489d9fb73d1f0b54925e435,9da253ca02e0a4e2a9ed944e02404195,fcd5ff9c1cef08545527ff7fb458f51b,4.70294E+11,35.085683,-89.914628,Memphis,TN,38117,urban,Memphis City School District,Shelby,f,f,f,f,f,f,Mrs.,f,f,Literacy,Literacy & Language,ESL,Literacy & Language,Supplies,highest poverty,Grades 3-5,30,333.74,392.64,23,t,f,9/5/12,f,t,t,t,f,t,t,f,33,2,4
0c792024c1d79d31ffa82a3d1e4f8c65,70938adb9452c1af1af96c7ccd96c0fb,9c961bcd298be422291c63dd82b6afda,3.60008E+11,40.792938,-73.947174,New York,NY,10029,urban,New York City Dept Of Ed,New York (Manhattan),f,f,f,f,f,f,Ms.,f,f,Literature & Writing,Literacy & Language,,,Books,highest poverty,Grades 6-8,9,181.53,221.38,28,f,f,8/27/09,f,f,t,t,f,f,t,f,0,0,1
0c791aad3bc81bfa6df413bcd4aa4505,bcad628df5d4610dae949be4a60f0fe1,3d600eca19b8acb867377e3e71d607d9,5.5096E+11,43.090595,-87.975235,Milwaukee,WI,53216,urban,Milwaukee Public Schools,Milwaukee,f,f,f,f,f,f,Mrs.,f,f,Literature & Writing,Literacy & Language,Mathematics,Math & Science,Supplies,highest poverty,Grades PreK-2,35,200.86,236.31,30,f,f,11/13/11,f,f,t,t,t,t,t,f,66,0,3
0c791893b0d94d3336b36c76159eee96,f6e934b78e8ab05bd09614af3dbf2e97,277071ea9057b2938a5b73f359b4adad,2.20087E+11,30.176724,-92.065065,Lafayette,LA,70503,urban,Lafayette Parish Sch District,Lafayette,f,f,f,f,f,f,Ms.,f,f,Character Education,Applied Learning,Literature & Writing,Literacy & Language,Technology,high poverty,Grades 6-8,30,623.1,733.06,100,f,f,10/24/13,f,f,t,f,f,f,t,f,0,0,1
0c78ecc48d24dfa3ec158efadc2462e1,92360d8336c0337d57ab9bfb0260aa99,7103bb0542e17929b718cb12e2b24844,62271002942,34.04719,-118.373764,Los Angeles,CA,90035,urban,Los Angeles Unif Sch Dist,Los Angeles,f,t,f,f,f,f,Mr.,f,f,Music,Music & The Arts,,,Supplies,highest poverty,Grades PreK-2,35,685.04,805.93,24,f,f,10/14/10,t,t,t,t,t,t,t,f,78,1,13
0c78e2886531f19d604756fd1ada6d70,e9e8a17e56c66659758b2e7474bf8db1,deb9c2bf0a0b72155696e467574dd30a,4.81611E+11,29.866819,-95.657536,Houston,TX,77084,suburban,Cypress-fairbanks Ind Sch Dist,Harris,f,f,f,f,f,f,Mrs.,f,f,ESL,Literacy & Language,Literacy,Literacy & Language,Books,highest poverty,Grades 6-8,17,462,563.41,30,f,f,9/3/08,f,f,f,f,t,f,f,f,100,0,1
0c78e2263f2b3a2fda2ad90f915333cf,81a3a43ea1432388856500b9e5312984,b7cde3a7b02adb69da4df84b8dce0d9a,1.20009E+11,30.19886,-85.838388,P C Beach,FL,32407,,Bay Co School District,Bay,f,f,f,f,f,f,Mrs.,f,f,Literacy,Literacy & Language,Health & Life Science,Math & Science,Books,highest poverty,Grades 3-5,30,176.64,207.81,22,t,f,8/30/13,f,t,t,t,f,f,t,f,0,2,1
0c78a16d3a71e25f7112ba1392c3a76d,06b152c5c67b56f33247cb85bab1da3f,44f987e89981314d43939803977be09f,4.50117E+11,32.972927,-80.03437,Goose Creek,SC,29445,suburban,Berkeley Co School District,Berkeley,f,f,f,f,f,f,Mrs.,f,f,Literacy,Literacy & Language,Literature & Writing,Literacy & Language,Supplies,highest poverty,Grades PreK-2,9,290,353.66,18,t,f,5/29/09,f,f,t,f,f,f,t,f,0,0,2
0c7898109d3de2f502a3300a57562327,1056e257f5411e9ee46833cd319f6327,0707dfc5465e790e374ca80f0756a3a9,80306001904,38.827576,-104.815117,Colorado Spgs,CO,80903,urban,Colorado Dept of Education,El Paso,t,f,f,f,f,f,Ms.,f,f,Environmental Science,Math & Science,Literature & Writing,Literacy & Language,Visitors,high poverty,Grades 3-5,30,953.65,1121.94,25,f,f,10/28/13,f,f,f,t,t,t,t,f,88,0,9
0c789444e8fe10fab1fc9ef149b5466e,b955d5ad9ab3b584b3dfef72ab3be01d,9972656650dd8b3afe1f450abfeb0474,5.10402E+11,37.273806,-76.704328,Williamsburg,VA,23185,suburban,Williamsburg-james City Co SD,JAMES CITY,f,f,f,f,f,f,Mrs.,f,f,Music,Music & The Arts,Social Sciences,History & Civics,Other,moderate poverty,Grades 3-5,17,141,171.95,450,f,f,11/27/08,f,f,t,t,t,t,f,f,100,0,8
0c788f992076678b302206008b72055e,519a8cdc33bea20f69438e51351cd1fb,44f987e89981314d43939803977be09f,4.50117E+11,32.972927,-80.03437,Goose Creek,SC,29445,suburban,Berkeley Co School District,Berkeley,f,f,f,f,f,f,Mrs.,f,f,Literacy,Literacy & Language,Literature & Writing,Literacy & Language,Books,highest poverty,Grades PreK-2,17,196,239.02,16,f,f,12/29/08,f,f,t,t,t,t,t,f,66,0,3
0c7886c31f770ae24b94c46c82281f62,99c44b7f566bdb804b6158a6a16ae4cc,88fbc059902f7bc9f439e8f7da321783,3.90436E+11,41.370823,-83.637414,Bowling Green,OH,43402,,Bowling Green City Sch Dist,Wood,f,f,f,f,f,f,Mrs.,f,f,Literacy,Literacy & Language,Mathematics,Math & Science,Technology,high poverty,Grades PreK-2,30,348.88,410.45,20,f,f,3/27/13,f,f,f,t,t,t,f,f,66,0,3
0c787be6d48813c7ad72a0c9e34ea010,d312235bc9f597c3ad3b8ed6ef6fe669,54a660bdf563d9ce3180779f0e68d0ed,3.9045E+11,41.435978,-81.51368,Warrensvl Hts,OH,44128,suburban,Warrensville Heights City SD,Cuyahoga,f,f,f,f,f,f,Mrs.,f,f,Special Needs,Special Needs,Early Development,Applied Learning,Technology,highest poverty,Grades PreK-2,35,303.19,356.69,7,f,f,4/20/12,f,f,f,f,t,f,t,f,100,0,2
0c7879ca942ba0d71683fd4e9209f1bd,ffa16ffdadbb112ce6fc8e177a2279a7,f47b21f9c51ceaa12caff9c4d95b87a1,1.30102E+11,32.046963,-81.09742,Savannah,GA,31405,urban,Savannah-chatham Co Sch Dist,Chatham,t,t,f,f,f,f,Mrs.,f,f,Visual Arts,Music & The Arts,Other,Applied Learning,Supplies,moderate poverty,Grades PreK-2,30,677.27,796.79,20,f,f,3/10/13,f,f,f,t,t,t,f,f,64,0,13
0c78726113342e4576fa4b95fc0af3de,373ba366e9236c6a5fc88a27cd131d58,1869e10cbb61bc4be9c5ee4699f2ec8e,62271003349,34.050041,-118.208237,Los Angeles,CA,90033,urban,Los Angeles Unif Sch Dist,Los Angeles,f,f,f,f,f,f,Ms.,f,f,Literacy,Literacy & Language,,,Books,high poverty,Grades 3-5,35,674.5,793.53,13,t,f,1/17/12,f,f,t,t,f,t,t,f,46,0,34
0c780dea81a338cea2d2354c0c143154,200c1d56a02c0a178c4c528d3ac62cf0,b2e682138127af11381e619f972f244c,1.81134E+11,40.355835,-86.878868,Lafayette,IN,47909,,Tippecanoe School District,Tippecanoe,f,f,f,f,f,f,Ms.,f,f,Health & Life Science,Math & Science,,,Other,moderate poverty,Grades 3-5,9,485.66,592.27,23,f,f,10/1/09,f,f,t,t,t,t,t,f,66,0,3
0c78075efa3429c487cc1c260c537a4e,61372236125e12701fbf989266b31b59,197a49fc662eb3104f210af07c0e072c,61146001260,33.925793,-118.135056,Downey,CA,90242,suburban,Downey Unified School District,Los Angeles,f,f,f,f,f,f,Mrs.,f,f,Special Needs,Special Needs,Early Development,Applied Learning,Other,high poverty,Grades PreK-2,30,415.62,488.96,24,f,f,12/9/13,f,f,f,f,f,f,f,f,,0,1
0c77f86a028b9e76fd48bf62c3a7233e,29b6ac3be6a1b67bacdbed7ea1898dc0,5614f50aa4fa4332fa3652b466f60e9f,2.20027E+11,32.510441,-93.714257,Bossier City,LA,71112,urban,Bossier Parish School Dist,Bossier,f,f,f,f,f,f,Mrs.,f,f,Literature & Writing,Literacy & Language,,,Books,highest poverty,Grades 3-5,35,297.96,350.54,22,f,f,4/19/11,f,,f,,f,,,,,,
0c77e260661a56a17188d3ece22e076e,f395efa5eb24b0af4e21b7374ff32b1b,c410cfb63b9fe942809eea71d5a7552b,4.8177E+11,32.917233,-97.442525,Fort Worth,TX,76179,,Eagle Mtn-saginaw Ind Sch Dist,Tarrant,f,f,f,f,f,f,Mrs.,f,f,Literacy,Literacy & Language,Mathematics,Math & Science,Technology,high poverty,Grades PreK-2,30,346.49,407.64,22,t,f,11/9/13,f,f,t,t,f,t,t,f,0,0,3
0c77d5c499ed4d655c3f988562bf084f,f8f9d8076ea0bc8fba454b16ad8dae25,e7b1a358fa9a41d4582dc2f717de49b4,4.20228E+11,40.61347,-75.48109,Allentown,PA,18102,urban,Allentown City School District,Lehigh,f,f,f,f,f,f,Ms.,f,f,Literacy,Literacy & Language,Literature & Writing,Literacy & Language,Books,highest poverty,Grades 3-5,35,423.81,498.6,21,f,f,10/15/11,f,f,t,t,f,t,t,f,55,0,10
0c77c6fe44253841b99bb89d48a62ba7,815f153ff350ab34ed4f7c03afd89728,2a1c2bc350aaa156bf9a9b95063c214f,61314001495,37.307709,-121.800955,San Jose,CA,95121,urban,Evergreen School District,Santa Clara,f,f,f,f,f,f,Ms.,f,f,Visual Arts,Music & The Arts,Literature & Writing,Literacy & Language,Technology,high poverty,Grades 6-8,35,202.46,238.19,35,f,f,10/4/10,f,t,f,f,t,f,f,f,66,1,1
0c77a8c999c28dd384ccc1cc8d51cac9,79caf1581d6e560280cab78ac73d75ca,1d126c7c287096cd994c0a73e9398515,3.40096E+11,39.358044,-74.444016,Atlantic City,NJ,8401,urban,Atlantic City School District,Atlantic,f,f,f,f,f,f,Mrs.,f,f,Literature & Writing,Literacy & Language,ESL,Literacy & Language,Books,highest poverty,Grades PreK-2,30,481.69,566.69,98,f,f,1/25/13,f,f,t,f,f,f,t,f,0,0,1
0c779f21fda7038a67c6d9afc1b7d1af,46e104ce02d7cc76011847f76642bbe4,598e509a10fe012c268c242c5b8ff9a6,3.60008E+11,40.792975,-73.94243,New York,NY,10029,urban,New York City Dept Of Ed,New York (Manhattan),f,f,f,f,f,f,Mr.,f,f,Civics & Government,History & Civics,Literacy,Literacy & Language,Books,highest poverty,Grades 6-8,17,494,602.44,130,f,f,9/9/07,f,f,t,t,f,f,t,f,,0,2
0c779daf17161b4d6970a84c0883a254,f586b1ebac262a42cad797ec8230cb53,d1a4a9d20adfe049889b4c40a2f78dfd,61440001678,37.544983,-121.932075,Fremont,CA,94539,urban,Fremont Unif School District,Alameda,f,f,f,f,f,f,Mrs.,f,f,Social Sciences,History & Civics,Civics & Government,History & Civics,Technology,low poverty,Grades 9-12,35,925.86,1089.25,170,f,f,11/14/10,f,f,f,f,f,t,f,f,50,0,3
0c775abbf592fbcef9ff85685f36d258,8e6217c34aa40ad01aa5728394022b35,d2c5db2172f115a4bec1704f58544827,5.10324E+11,37.518461,-77.502556,Richmond,VA,23225,urban,Richmond City School District,Richmond City,f,f,f,f,f,f,Mrs.,f,f,Mathematics,Math & Science,Applied Sciences,Math & Science,Supplies,highest poverty,Grades 3-5,17,555,676.83,25,f,f,3/2/08,f,f,f,f,f,f,t,f,,0,1
0c77570eb5cb53b659c1b342a6d3e9d8,8d01e5fef053ed19f4a1342bdcae96cd,f94a4b8440e3b0d922c0813a0453724e,4.21899E+11,40.044792,-75.066269,Philadelphia,PA,19149,urban,Philadelphia City School Dist,Philadelphia,f,f,f,f,f,f,Mrs.,f,f,Literacy,Literacy & Language,Early Development,Applied Learning,Other,highest poverty,Grades PreK-2,17,454,553.66,250,f,f,5/5/08,f,,f,,f,,,,,,
0c773985873564d0912ddb87b55aa31a,36232fc6f9884630d078352b6491adf5,e278ead77a0709c62125ea82daab4fb3,1.50003E+11,18.24914,-66.628036,Kahului,HI,96732,,Maui School District,Maui,f,f,t,f,f,f,Mrs.,f,f,College & Career Prep,Applied Learning,,,Technology,high poverty,Grades 9-12,30,973.19,1144.93,50,f,f,11/8/13,f,,f,,f,,,,,,
0c7724ca7d5d0630fd78044dfff174d4,42da9f9383af14f7efd26758449074c1,fcea616e2f9b9fa11e6d91411951a7be,2.63531E+11,42.678597,-83.391246,Waterford,MI,48329,suburban,Waterford School District,Oakland,f,f,f,f,f,f,Ms.,f,f,Visual Arts,Music & The Arts,College & Career Prep,Applied Learning,Supplies,high poverty,Grades 9-12,35,439.4,516.94,105,f,f,12/6/10,f,t,t,t,f,t,t,f,52,5,12
0c770453cefad9d79f93fa139885e5a3,5473744eb56c7b8ee793edfb2e7b75d1,e13973b1a9c71393f5e1907c89209181,1.73093E+11,39.592733,-89.576851,Pawnee,IL,62558,,Pawnee Cmty Unit Sch Dist 11,Sangamon,f,f,f,f,f,f,Mrs.,f,f,Literacy,Literacy & Language,Health & Wellness,Health & Sports,Books,moderate poverty,Grades 6-8,35,184.97,217.61,50,f,f,5/20/12,f,f,t,f,t,t,f,f,75,0,5
0c76e21ae680473058923cd8153a37dc,64b3a0820557b9db8209429d1343dff8,1003995c0339844bb1a1c2e3e05aa593,4.81623E+11,32.751282,-96.859848,Dallas,TX,75211,urban,Dallas Ind School District,Dallas,f,f,f,f,f,f,Ms.,f,f,Visual Arts,Music & The Arts,ESL,Literacy & Language,Technology,highest poverty,Grades PreK-2,30,419.99,494.11,665,t,f,10/13/13,f,f,t,f,f,f,t,f,0,0,2
0c76dfed6e2ec064be2b4f7654243f2d,ec52ac61d6bab548e536df02f36237f4,eb372d0e84a9694720a61a1d634f6336,60807000775,33.828709,-118.008148,Anaheim,CA,92804,urban,Centralia Elem School District,Orange,f,f,f,f,f,f,Mrs.,f,f,Literacy,Literacy & Language,Mathematics,Math & Science,Technology,highest poverty,Grades 3-5,35,378.94,445.81,30,f,f,3/9/11,f,f,t,f,f,t,f,f,57,0,4
0c76ca8f2233b9e60154fef43699d49c,b756f99d81cdcbb86895c3aac03b897d,02c4b10f986f153c4bae492471636ac8,,40.607208,-74.095299,Staten Island,NY,10304,urban,New York City Dept Of Ed,Richmond (Staten Island),f,f,f,f,f,f,Mrs.,f,f,Literacy,Literacy & Language,Music,Music & The Arts,Technology,highest poverty,Grades PreK-2,17,332,404.88,25,f,f,9/27/08,f,,f,,f,,,,,,
0c76b00058ee8982a07cdc8159ae200d,93a30a52b40d6b80131aadf5d07c245e,6ad2dd961b9d2f8d296563c7fe1a40a0,2.92928E+11,38.581502,-90.228079,Saint Louis,MO,63118,urban,St Louis City Public Sch Dist,St Louis City,f,t,f,f,f,f,Mrs.,f,f,Literacy,Literacy & Language,Literature & Writing,Literacy & Language,Books,highest poverty,Grades 9-12,35,266.85,313.94,100,f,t,9/9/10,f,f,t,t,f,t,t,f,60,0,7
0c768a4211679cbd6743e3d326b9a623,b40b9b7d66f1c3c37a8c03e1a04e833e,15d83bf1dab6c4713989999db6826032,3.60009E+11,40.841759,-73.897957,Bronx,NY,10457,urban,New York City Dept Of Ed,Bronx,f,f,f,f,f,f,Mr.,f,f,Visual Arts,Music & The Arts,Literature & Writing,Literacy & Language,Technology,highest poverty,Grades 6-8,,1022.95,1247.5,24,f,f,11/19/06,f,f,t,t,f,t,t,f,,0,3
0c7667c6c3c14358b38ab01a210e52e4,9d0b963dcdb378e2ebcb912cfe40a388,e8d70727108c76aa0ecd64cb29dd0c42,3.60012E+11,40.66655,-73.911084,Brooklyn,NY,11212,urban,New York City Dept Of Ed,Kings (Brooklyn),f,f,f,f,f,f,Mrs.,f,f,Literacy,Literacy & Language,,,Supplies,highest poverty,Grades PreK-2,35,232.57,267.32,25,f,t,6/24/10,f,f,t,t,t,t,t,f,100,0,3
0c761f2f0ecb8389e24972fd812c10b1,9c4334a3ce1353b6d3d8666e66dac3b3,18c6dba66b993ea0171d9b9c841019d2,4.50249E+11,34.021002,-79.154964,Galivants Fry,SC,29544,rural,Horry Co School District,Horry,f,f,f,f,f,f,Ms.,f,f,Literature & Writing,Literacy & Language,Mathematics,Math & Science,Supplies,high poverty,Grades PreK-2,30,469.44,552.28,23,f,f,5/30/12,f,,f,,f,,,,,,
0c7602d7d3257c4379d8a15c413f4e9e,da72c1b7f4789b7a6eac5f0d1ed0deb5,887441c7f9e7271d380a5f07d59f5c0d,2.73178E+11,45.019701,-93.390587,New Hope,MN,55427,suburban,Robbinsdale Ind Sch Dist 281,Hennepin,f,f,f,f,f,f,Mrs.,f,f,Literacy,Literacy & Language,,,Supplies,high poverty,Grades PreK-2,35,349.29,410.93,25,f,f,4/3/11,f,t,f,t,f,t,f,f,60,1,4
0c75d622fb836f037427540b24e97339,aa4dbf10f779d1d293191cb8743ebfe2,a4dd1a0594ce095244bddad89f4900a4,1.30111E+11,34.116241,-84.561668,Woodstock,GA,30189,suburban,Cherokee Co School District,Cherokee,f,f,f,f,f,f,Mrs.,f,f,College & Career Prep,Applied Learning,Community Service,Applied Learning,Technology,moderate poverty,Grades 9-12,9,249.82,304.66,230,f,f,8/3/09,f,,f,,f,,,,,,
0c75cffbe5539418dd27b7bf6a244a28,8749e21a8c1d0590104fd596ac4ee9aa,6882f1176619142aca145a064c4d6496,1.70993E+11,41.970387,-87.71008,Chicago,IL,60625,urban,O'hare Elementary Network,Cook,f,f,f,t,f,f,Ms.,f,f,Health & Wellness,Health & Sports,Nutrition,Health & Sports,Other,highest poverty,Grades 3-5,17,230,280.49,28,f,f,10/26/08,f,f,t,t,t,t,t,f,100,0,5
0c75a59ebb43993a1a497cb0fcc6a0e2,6fe3bc3b932f554c03390bccf95b6b98,9fe7f780a527e98204b956c6f2e02e6d,62271003295,34.091657,-118.29958,Los Angeles,CA,90029,urban,Los Angeles Unif Sch Dist,Los Angeles,f,f,t,f,f,f,Mrs.,f,f,Literacy,Literacy & Language,Mathematics,Math & Science,Other,high poverty,Grades PreK-2,30,484.59,570.11,29,f,f,10/23/13,t,t,t,t,t,t,t,f,80,4,3
0c759bbe5f3e19813ed03ffe32bee3dd,eb347fd877218b541f8fdcf6108fe986,a7112631dcd798218a34b8d2ce1835b3,1.30174E+11,33.874344,-84.322014,Atlanta,GA,30319,suburban,Dekalb Co School District,De Kalb,f,f,f,f,f,f,Mrs.,f,f,Literacy,Literacy & Language,Mathematics,Math & Science,Technology,high poverty,Grades 3-5,30,634.33,746.27,25,t,f,10/29/13,f,f,t,f,f,f,t,f,0,0,2
0c7596890956df668a08fd0222933c0b,fe7a4340dd01b525f4979d5bad16c7e0,8b851782d681c83d7804fdfa12b5175b,3.70058E+11,35.901634,-81.418655,Lenoir,NC,28645,urban,Caldwell Co School District,Caldwell,f,f,f,f,f,f,Mrs.,f,f,Literacy,Literacy & Language,Literature & Writing,Literacy & Language,Supplies,high poverty,Grades 3-5,,159.9,195,52,f,f,6/22/06,f,f,t,t,f,f,t,f,,0,2
0c758df7766b4ed55c3c92851a3416d6,f0a36340c7dce4189563954270ef4420,688dcafcddf5d18d33e5132595eaf620,4.70369E+11,36.022288,-86.565466,La Vergne,TN,37086,suburban,Rutherford Co School District,Rutherford,f,f,f,f,f,f,Ms.,f,f,Literacy,Literacy & Language,,,Supplies,highest poverty,Grades PreK-2,9,187.24,228.34,16,t,f,10/13/09,f,f,f,f,t,f,f,f,100,0,1
0c756f6ee6eb8825cc127fad7af45a64,5fa26d1d1ca8de3bd3d5fcfad7ba4a13,b57ebd049b386cd3e02d0add2f93e61a,5.30396E+11,47.38029,-122.253486,Kent,WA,98032,urban,Kent School Dist 415,King,f,f,f,f,f,f,Mrs.,f,f,Performing Arts,Music & The Arts,Music,Music & The Arts,Supplies,high poverty,Grades 3-5,17,178,217.07,22,f,f,3/30/09,f,f,t,t,t,t,f,f,100,0,9
0c75687f1da750db997c70c704df26a2,08bf2340fb6af171a509b3d789c42413,5bef7c0c3fa6db1ae9be3a4e1f3e299e,3.30522E+11,43.595057,-71.742003,Bristol,NH,3222,rural,School Administrative Unit 4,Grafton,f,f,f,f,f,f,Mr.,f,f,Applied Sciences,Math & Science,Literacy,Literacy & Language,Technology,moderate poverty,Grades 6-8,30,515.07,605.96,86,f,f,11/4/13,f,t,t,t,f,f,t,f,33,2,1
0c75589e0749f72b1925eae66b3609be,d041d16b964c19054dc844f898c3196e,153813de18bbf319b447c2e9a8740943,3.40072E+11,40.911132,-74.177487,Paterson,NJ,7501,suburban,New Jersey Dept of Education,Passaic,t,f,f,f,f,f,Ms.,f,f,Mathematics,Math & Science,,,Supplies,high poverty,Grades PreK-2,30,256.25,301.47,21,t,f,3/11/13,f,f,t,t,t,t,t,f,66,0,4
0c754aed1feca2c9644cacc598a766f4,578e6f3daf095136b37c0c2335d14a54,68e706fb8fa85247663a2f96229fab14,,34.019711,-118.158539,Los Angeles,CA,90022,,,Los Angeles,t,f,f,f,f,t,Mrs.,f,f,Mathematics,Math & Science,,,Supplies,high poverty,Grades 9-12,35,385.9,454,120,f,f,2/13/11,f,t,t,f,t,t,f,f,100,1,13
0c7538fc6dd1e79b0ce626b3aa9ac2ce,aaba175fa7ed1b532be46df5a0eefdfa,25b8360d17b604af231bcbc8c0535c1c,61035001156,36.525283,-119.286668,Cutler,CA,93615,rural,Cutler Orosi Joint Unif SD,Tulare,f,f,f,f,f,f,Ms.,f,f,Literature & Writing,Literacy & Language,Social Sciences,History & Civics,Books,highest poverty,Grades PreK-2,30,273.38,321.62,5,t,f,10/12/12,f,f,t,t,t,t,t,f,75,0,3
0c75345d5ecba8ab8c8b6885acb1b8c3,fdcae8aaa09a00895f7c1a95fb98e6eb,8fe9ee9a52164271203756ebcd7b02f5,1.20159E+11,27.953137,-81.945745,Lakeland,FL,33813,suburban,Polk Co School District,Polk,f,f,f,f,f,f,Mrs.,f,f,Literacy,Literacy & Language,Special Needs,Special Needs,Technology,high poverty,Grades PreK-2,30,490.2,576.71,85,f,f,3/12/13,f,t,t,t,f,t,f,f,46,8,6
0c74fe6e31d490364aebf68ca88e7465,1cb8a952769a60ab3df0e90844e17a1d,932a9ec4391b8b5771f26918fe68adc5,1.20159E+11,27.832792,-81.526475,Babson Park,FL,33827,rural,Polk Co School District,Polk,t,f,f,f,f,f,Mr.,f,f,Music,Music & The Arts,History & Geography,History & Civics,Supplies,high poverty,Grades 3-5,9,449.94,548.71,450,f,t,2/24/10,f,f,t,t,f,t,t,f,33,0,7
0c74da3773c7515fd0c4104cc4d1e870,0908be720dd345266645059d32ec32fe,f47b21f9c51ceaa12caff9c4d95b87a1,1.30102E+11,32.046963,-81.09742,Savannah,GA,31405,urban,Savannah-chatham Co Sch Dist,Chatham,t,t,f,f,f,f,Mrs.,f,f,Gym & Fitness,Health & Sports,Health & Wellness,Health & Sports,Supplies,moderate poverty,Grades 6-8,35,960.86,1130.42,560,f,f,12/14/10,f,f,f,t,t,t,f,f,100,0,3
0c7494ac36e9f83014ea2c7f518c2aae,b927f1fcfb31c38a7b19b1f24672d48e,f5795aad717dae3db899615990455d71,1.80477E+11,39.828823,-86.161018,Indianapolis,IN,46208,urban,Indianapolis Public Sch Dist,Marion,f,f,f,f,f,f,Mrs.,f,f,Visual Arts,Music & The Arts,Other,Applied Learning,Supplies,highest poverty,Grades PreK-2,30,389.52,458.26,550,f,f,7/8/13,f,,f,,f,,,,,,
0c747e13ced1f04cdb0a22280bb3768b,ac7369de08d14fbf5ab5952ab05adf0d,87747af12d7e021465396b8fa550ba81,2.80282E+11,31.220298,-89.819671,Columbia,MS,39429,,Marion Co School District,Marion,f,f,f,f,f,f,Ms.,f,f,Mathematics,Math & Science,,,Technology,highest poverty,Grades 6-8,17,844,1029.27,80,t,f,6/25/08,f,,f,,f,,,,,,
0c742d229efe78f569470f9ddac09ceb,3cc7876d52231c3c4a2fd34efa2484fd,7eacc84ed51c7f32f5e2037caf4cff84,62250002700,33.796177,-118.131164,Long Beach,CA,90815,urban,Long Beach Unified School Dist,Los Angeles,f,t,f,f,f,f,Mrs.,f,f,Literature & Writing,Literacy & Language,Mathematics,Math & Science,Technology,high poverty,Grades PreK-2,30,908.81,1069.19,30,f,f,11/27/13,f,f,t,f,f,f,t,f,0,0,1
0c7428b61d9f2e9ef6a2fc440dd5c129,77365fa753843e175d696fc52fe18c45,a8c99a2c790f98c0a90682321b368fd5,3.62798E+11,40.950817,-73.886391,Yonkers,NY,10703,suburban,Greenburgh-north Castle SD,Westchester,f,f,t,f,f,f,Ms.,f,f,Visual Arts,Music & The Arts,College & Career Prep,Applied Learning,Other,highest poverty,Grades 9-12,17,429.92,524.29,175,t,f,5/10/09,f,,f,,f,,,,,,
0c74145c8807ba677f64f6d4927cd20a,ffa16ffdadbb112ce6fc8e177a2279a7,f47b21f9c51ceaa12caff9c4d95b87a1,1.30102E+11,32.046963,-81.09742,Savannah,GA,31405,urban,Savannah-chatham Co Sch Dist,Chatham,t,t,f,f,f,f,Mrs.,f,f,Health & Wellness,Health & Sports,Literacy,Literacy & Language,Supplies,moderate poverty,Grades PreK-2,30,457.07,537.73,22,t,f,7/5/13,t,t,t,t,t,t,t,f,66,2,16
0c740f487d345da372e9b480515f0c3d,2fad5e49c790857556f0f16014ab9144,fb53f47a2f93901b22d026b5308acba7,1.70993E+11,41.941144,-87.719101,Chicago,IL,60618,urban,Fullerton Elem Network,Cook,f,f,f,f,f,f,Ms.,f,f,Literature & Writing,Literacy & Language,ESL,Literacy & Language,Other,highest poverty,Grades PreK-2,35,239.78,282.09,35,f,f,8/21/11,f,f,f,t,t,f,f,f,100,0,1
0c7408191c55e50f085e46ab39b22170,ab027714294d141a9c5723290753ec0d,4fadf959f7de18c4b65e6e631aacbf4b,3.70001E+11,35.595348,-77.576561,Farmville,NC,27828,,Pitt Co School District,Pitt,f,f,f,f,f,f,Ms.,f,f,Other,Applied Learning,,,Supplies,high poverty,Grades 3-5,9,157.46,192.02,25,f,f,7/19/09,f,,f,,f,,,,,,
0c73fa66b518b2e32775f8be06a8a4e9,f842fb450d332a829cd52e438d2e3d00,9f3eb48abd68c28edf095318e94e4cbe,5.10324E+11,37.530186,-77.413025,Richmond,VA,23223,,Richmond City School District,Richmond City,f,f,f,f,f,f,Ms.,f,f,Mathematics,Math & Science,History & Geography,History & Civics,Technology,highest poverty,Grades 3-5,35,598.74,688.21,18,t,f,5/20/10,f,f,f,f,t,t,f,f,100,0,4
0c73f9ea3b322166e22e6cee9f9c6ac4,3049eadb6b905328f866624373fb0c8c,ed7e1a83749173193b72af5b69fad1ae,3.40126E+11,40.672159,-74.116978,Bayonne,NJ,7002,suburban,Bayonne School District,Hudson,f,f,f,f,f,f,Mrs.,f,f,Literacy,Literacy & Language,Literature & Writing,Literacy & Language,Other,high poverty,Grades 6-8,35,154.54,181.81,80,f,f,12/1/10,f,f,t,t,t,t,t,f,66,0,3
0c7393c5267ca1c135a8004f6f356eab,8de5976b208afe0f4ba2e6b1129ec7f2,d34a1b57a21681e1582a80e48b206b7d,1.20111E+11,30.474899,-84.211731,Tallahassee,FL,32308,urban,Leon Co School District,Leon,f,f,f,f,f,f,Mrs.,f,f,Literacy,Literacy & Language,Mathematics,Math & Science,Technology,high poverty,Grades 3-5,9,507.96,619.46,50,f,f,8/18/09,f,,f,,f,,,,,,
0c738fb9b40b0fe73d7ac39fe2549b7e,bfe0f53c3b2f9eca3f4e254cdc2861bd,1657d776594c8aa42f00f850e6eeccac,1.10003E+11,38.928829,-77.036264,Washington,DC,20010,urban,Dc Public Schools,District Of Columbia,f,f,f,t,f,f,Mr.,f,f,Applied Sciences,Math & Science,Health & Life Science,Math & Science,Technology,highest poverty,Grades 9-12,35,494.31,581.54,120,f,f,2/7/12,f,,f,,f,,,,,,
0c737d0e53d2b69e4b8c492752a7b513,0dda73fcb87614318506401fc590aa20,ebd39da5b1ac2f3610bc4fa7f26966f8,4.11082E+11,44.95984,-123.085928,Salem,OR,97304,urban,Salem Keizer Sch Dist 24j,Polk,f,f,f,f,f,f,Ms.,f,f,Foreign Languages,Literacy & Language,,,Technology,high poverty,Grades 9-12,35,297.06,349.48,150,t,f,12/8/11,f,f,t,t,f,t,t,f,50,0,6
0c736ca73e3bbede4dca6f7d90dece73,0bc7b5b29f481fce17bd3e71b9b1f353,379010125ef7d157f4db5c2dd92a9058,4.03024E+11,36.159587,-95.906549,Tulsa,OK,74115,urban,Tulsa Independent Sch Dist,Tulsa,f,f,f,f,f,f,Mrs.,f,f,Health & Life Science,Math & Science,Literacy,Literacy & Language,Supplies,highest poverty,Grades PreK-2,35,165.53,194.74,22,t,f,6/16/12,f,f,t,t,t,t,f,f,66,0,3
0c734affabeca75fba291b1e3be3c2b2,3f04e2fb8cf861279612e592afe10623,2e24d8d894ffa10abc112646c7b97f25,2.40009E+11,39.310806,-76.674225,Baltimore,MD,21216,urban,Baltimore City Public Sch Dist,Baltimore City,t,f,f,f,f,f,Ms.,t,f,Literacy,Literacy & Language,Literature & Writing,Literacy & Language,Other,highest poverty,Grades 6-8,35,361.62,425.44,40,f,f,1/10/11,f,,f,,f,,,,,,
0c733b5283d320dbce33e20aadafd38d,f2aa366ce122292f25c6bc88b31d2f5a,5618eed9a97e829ef316bb66dd17f830,3.10002E+11,41.128916,-100.781847,North Platte,NE,69101,rural,North Platte School District 1,Lincoln,f,f,f,f,f,f,Mr.,f,f,Literacy,Literacy & Language,Mathematics,Math & Science,Supplies,moderate poverty,Grades 3-5,35,317.82,373.91,22,f,f,9/25/10,f,f,t,f,f,f,t,f,0,0,1
0c731fa0258627cfbad5a5add2f39e59,be37706ec59d8e3999eba3a0e28f0bd9,e95cbd943787afecb737e85a0aaf564b,3.60585E+11,42.91862,-78.847343,Buffalo,NY,14208,urban,Buffalo City School District,Erie,f,f,f,f,f,f,Mrs.,f,f,Foreign Languages,Literacy & Language,Special Needs,Special Needs,Technology,highest poverty,Grades 6-8,30,447.99,527.05,200,f,f,9/12/13,f,t,f,t,f,f,f,f,40,3,2
0c72fe9f5101859a3337a6b3ed0b9e9e,46c70fa3ea3fe5286396ccbd5d05a793,43aa2889c5cc6d692b0e5e2db2bb27e6,4.80771E+11,29.885412,-95.340988,Houston,TX,77093,urban,Aldine Ind School District,Harris,f,f,f,f,f,f,Ms.,f,f,Literacy,Literacy & Language,Literature & Writing,Literacy & Language,Books,highest poverty,Grades PreK-2,35,169.9,199.88,40,t,f,3/4/11,f,t,t,t,f,t,f,f,0,1,4
0c72f7c22f6e8b989d56deb8b0f443ba,d6c1cc2918be9e70f8d57656d566e062,710c9e2934cc5cdec12c35e0c42ab887,4.50228E+11,33.387012,-79.381424,Georgetown,SC,29440,,Georgetown Co School District,Georgetown,f,f,f,f,f,f,Mr.,f,f,Applied Sciences,Math & Science,,,Technology,highest poverty,Grades 9-12,30,486.75,572.65,120,f,f,5/1/13,f,f,t,f,t,f,t,f,100,0,1
0c72e45dcd14daf7286de9b024afc57a,438210f0854cb7a4bb0421e5b5d4fcfc,81b9051633be00ca6af01390179cd65b,5.40123E+11,37.84782,-81.195019,Mount Hope,WV,25880,,Raleigh Co School District,Fayette,f,f,f,f,f,f,Mrs.,f,f,History & Geography,History & Civics,Literacy,Literacy & Language,Books,high poverty,Grades 3-5,30,358.36,421.6,75,f,f,7/9/13,f,t,f,t,t,t,f,f,75,2,6
0c72d90bdddfdde1342d90b6a3a6db53,fb0dca1d74c710b50f39a925e716bdd9,ccc3b60d726181d2923f39bee3957b91,2.90531E+11,39.016785,-94.374902,Lees Summit,MO,64064,suburban,Blue Springs School Dist R4,Jackson,f,f,f,f,f,f,Mrs.,f,f,Literacy,Literacy & Language,,,Books,low poverty,Grades PreK-2,30,434.06,510.66,20,t,f,9/16/12,f,f,t,f,f,f,t,f,0,0,2
0c72caf5ed27831f3c257249fb7a4485,cab1388a1216de6fbc1b4b27c5336650,98840e438a41ab53a656abd5631a9f9f,1.20087E+11,27.940946,-82.385604,Tampa,FL,33619,suburban,Hillsborough Co Pub Sch Dist,Hillsborough,f,f,f,f,f,f,Ms.,f,f,Literacy,Literacy & Language,,,Books,highest poverty,Grades 3-5,9,264.38,322.41,20,t,t,4/26/10,f,f,t,t,t,t,f,f,64,0,15
0c72c1f51462c5a9c20be3e43df734c5,26886e755da4c00e72b9bafb1676ceb9,0fd88da0d559f2d9359eac90f609e964,62211002627,37.684967,-121.742363,Livermore,CA,94550,suburban,Livermore Valley Joint Unif SD,Alameda,f,f,f,f,f,f,Mrs.,f,f,Literacy,Literacy & Language,Literature & Writing,Literacy & Language,Books,high poverty,Grades PreK-2,9,173.49,211.57,25,f,f,10/11/09,f,f,t,t,f,f,t,f,,0,1
0c72b60f451073319515146ef9905be0,c607f89fb9e7f7e036ac54e237022213,7d4e4a48fdaf7ce76d83bb0f877baa3d,3.41374E+11,40.34262,-74.081471,Red Bank,NJ,7701,suburban,Red Bank Borough Public SD,Monmouth,f,f,f,f,f,f,Ms.,f,f,Literacy,Literacy & Language,,,Supplies,highest poverty,Grades PreK-2,30,411.13,483.68,24,f,t,12/21/13,f,t,t,t,f,t,t,f,0,1,3
0c727d92364262e4d452dbda6841e08a,fb5e5344143aae1f7293f7b84d7d03f3,8b605d1849c23e9253bffcd73bcaf748,62271011633,34.036512,-118.271333,Los Angeles,CA,90015,urban,Los Angeles Unif Sch Dist,Los Angeles,t,f,f,f,f,t,Ms.,t,f,Literature & Writing,Literacy & Language,,,Supplies,highest poverty,Grades 9-12,35,428.81,504.48,150,f,f,3/31/11,f,f,t,f,f,t,f,f,50,0,15
0c727276db75be6c8af152d4dab5d1d3,736daddb1c6bbbaf4e00dce6b2ee128f,0b9101c7a193ec4b87c4a7d34d5bade3,3.7012E+11,34.738533,-77.977626,Wallace,NC,28466,rural,Duplin Co School District,Duplin,f,f,f,f,f,f,Ms.,f,f,Extracurricular,Applied Learning,Character Education,Applied Learning,Supplies,highest poverty,Grades 3-5,35,279.52,328.85,110,f,f,1/26/11,f,f,t,t,t,f,t,f,100,0,2
0c726b5c225c0db6284041ae52c12928,3ccd76490496ec416b756931801ddb91,e49b6805691fe35f6d7396561bbb6763,5.10081E+11,36.800954,-76.245347,Chesapeake,VA,23325,suburban,Chesapeake School District,Chesapeake City,f,f,f,f,f,f,Mrs.,f,f,Mathematics,Math & Science,Early Development,Applied Learning,Supplies,high poverty,Grades 3-5,9,218.3,266.22,32,f,f,12/27/09,f,f,t,t,f,f,t,f,50,0,2
0c7252891c763a5480cb48408cacebe2,f913a88b3d23016f49ae80eff99a315b,69af25d9d59765fb284ea2213dc48338,4.4009E+11,41.816417,-71.464337,Providence,RI,2909,urban,Providence Public School Dist,Providence,f,f,t,f,f,f,Ms.,f,f,History & Geography,History & Civics,,,Supplies,highest poverty,Grades 3-5,17,546,665.85,26,f,f,3/1/08,f,,f,,f,,,,,,
0c723936166bf3726d5a5ed732aee0fa,510a5ba723a3dd070293840c97abad89,ee45cdc56f5d5dc620752e1ef41e0f4d,62271011954,33.99461,-118.418968,Los Angeles,CA,90066,urban,Los Angeles Unif Sch Dist,Los Angeles,t,f,f,f,f,t,Mrs.,t,f,Applied Sciences,Math & Science,Environmental Science,Math & Science,Supplies,high poverty,Grades 6-8,35,310.08,364.8,160,t,t,10/10/10,f,f,t,t,f,t,t,f,20,0,4
0c722f8b0f4f544c897e7cc3e904774b,a6bd771064eeb174e311c4489db2be1b,933c76c2149e216c7054aa2cdd46c19f,4.70222E+11,36.01119,-83.959365,Knoxville,TN,37912,urban,Knox Co School District,Knox,f,f,f,f,f,f,Mrs.,f,f,Literacy,Literacy & Language,History & Geography,History & Civics,Books,highest poverty,Grades 3-5,35,330.62,388.96,400,f,f,1/21/11,f,f,f,f,t,f,f,f,100,0,1
0c7222368acfca1043b24bbe41f1e9f6,5c0edb9b0a069c9ea5a755ff15426592,badb0fc6eb8cd08f850b233f8c05f7e3,4.11004E+11,45.496155,-122.614197,Portland,OR,97206,urban,Portland School District 1j,Multnomah,f,f,f,f,f,f,Ms.,f,f,Social Sciences,History & Civics,Literacy,Literacy & Language,Other,highest poverty,Grades 3-5,35,183.6,211.03,30,f,f,6/23/10,f,,f,,f,,,,,,
0c721e5ff85bb712484f917027d2bb38,50065dc8c13281f4f9249d268654966a,fed70a989d854ffda3408903551c950f,2.51197E+11,42.14715,-71.229043,East Walpole,MA,2032,suburban,Walpole Public School District,Norfolk,f,f,f,f,f,f,Mr.,f,f,Environmental Science,Math & Science,Mathematics,Math & Science,Technology,moderate poverty,Grades 6-8,30,917.5,1079.41,175,f,f,10/13/12,f,f,t,t,t,t,t,f,75,0,4
0c71ffbfad5752d4f2fac27913447123,3458bde285f0991a44e1df17342f9e8f,0c366b668075c70e0f177d659828726f,4.83432E+11,29.662857,-95.244034,South Houston,TX,77587,suburban,Pasadena Ind School District,Harris,f,f,f,f,f,f,Ms.,f,f,Mathematics,Math & Science,Extracurricular,Applied Learning,Other,highest poverty,Grades PreK-2,30,1144.95,1347,50,f,f,7/14/12,f,f,t,f,f,f,t,f,0,0,1
0c71daf45e22a215214e794d3b151511,c0c68cc6c55975e70a2070fdba81a4af,677aa96a60b52268babc402eb85d3c95,62271010868,34.036602,-118.283119,Los Angeles,CA,90007,urban,Los Angeles Unif Sch Dist,Los Angeles,t,f,f,f,f,t,Ms.,f,f,Social Sciences,History & Civics,Literature & Writing,Literacy & Language,Supplies,highest poverty,Grades 6-8,35,408.18,480.21,90,f,f,4/12/11,f,f,f,t,f,f,f,f,50,0,2
0c71d2ebd9fa46b09d45c2d8a8862373,2247bfd422df8a2fe47c58ed83094a6d,622dcdf2f06c90d40b846f204197ec35,1.20087E+11,27.967962,-82.406967,Tampa,FL,33605,urban,Hillsborough Co Pub Sch Dist,Hillsborough,f,f,t,f,f,f,Mrs.,f,f,Literacy,Literacy & Language,,,Books,highest poverty,Grades PreK-2,35,449.86,529.25,18,f,f,8/31/11,f,t,f,t,t,f,f,f,100,1,2
0c71b02475a1b400f56e2f32bc9d1463,cfa21ff7b6228f1e8c0560f2c9ea1592,ddf51dc4bd213480155484f17a2f8994,3.70003E+11,36.076979,-79.377488,Graham,NC,27253,,Alamance-burlington Sch Dist,Alamance,f,f,t,f,f,f,Mr.,f,f,Literature & Writing,Literacy & Language,Environmental Science,Math & Science,Books,highest poverty,Grades 3-5,35,428.56,504.19,80,t,f,6/23/11,f,f,t,f,f,f,t,f,50,0,2
0c7188314a815a4583f8ea32ce3adf7d,1da6af3675204c6c5341c159fed06531,1ae88e794d45379f6b76c1c86368af3e,3.70256E+11,35.388821,-79.193091,Lemon Springs,NC,28355,,Lee Co School District,Lee,f,f,f,f,f,f,Mrs.,f,f,Literature & Writing,Literacy & Language,Mathematics,Math & Science,Other,highest poverty,Grades PreK-2,17,356,434.15,24,f,f,8/12/07,f,f,f,f,f,f,f,f,,0,1
0c71772529fade7623924177561ec4d5,54b675f493d4bfdbcb6c5b9ab160acc4,9521cdb8fb35e91c76928bd93aa251aa,62271003038,34.11738,-118.182632,Los Angeles,CA,90042,urban,Los Angeles Unif Sch Dist,Los Angeles,f,f,f,f,f,f,Mrs.,f,f,Literature & Writing,Literacy & Language,Mathematics,Math & Science,Supplies,high poverty,Grades 3-5,35,294.77,346.79,29,t,f,11/14/11,f,f,t,f,f,t,t,f,33,0,7
0c713ddd27bc06648f89d17afc799e0d,d191e15d26f82c03c980b6dcf5fafeed,ea3cce8ef84ca25adbe12250d6cb47eb,1.80477E+11,39.783872,-86.196613,Indianapolis,IN,46222,urban,Indianapolis Public Sch Dist,Marion,f,f,f,f,f,f,Ms.,f,f,Literature & Writing,Literacy & Language,Literacy,Literacy & Language,Supplies,highest poverty,Grades 3-5,9,150.79,183.89,35,t,f,4/14/10,f,f,t,t,f,t,f,f,60,0,5
0c71084fec1ed3288005ebc71da6fa2e,75ac1952a4f73f3e7f488a413fc3b7e8,dc914d7140097d80ba7f63c158711d3b,,42.916706,-78.892784,Buffalo,NY,14213,urban,Buffalo City School District,Erie,f,f,f,f,f,f,Ms.,f,f,ESL,Literacy & Language,Civics & Government,History & Civics,Books,highest poverty,Grades 6-8,30,422.09,496.58,30,f,f,5/12/13,f,f,t,t,t,t,t,t,87,0,7
0c70f71b28fe8004a3e050bfad51fcfb,1d1d02391a2ce677bec3dcec8b532825,0b9101c7a193ec4b87c4a7d34d5bade3,3.7012E+11,34.738533,-77.977626,Wallace,NC,28466,rural,Duplin Co School District,Duplin,f,f,f,f,f,f,Ms.,f,f,Literature & Writing,Literacy & Language,Visual Arts,Music & The Arts,Books,highest poverty,Grades 3-5,30,353.36,415.72,75,f,f,7/3/12,f,f,t,f,f,f,t,f,0,0,1
0c70ee7ecd1a8e5e9787b3d6adfa17a6,efe17ef477450b579a7622eb90f5a4b9,c5f086009e1f48e4e4dbfa192118e86b,2.40009E+11,39.282239,-76.596724,Baltimore,MD,21231,urban,Baltimore City Public Sch Dist,Baltimore City,t,f,f,f,f,f,Mrs.,f,f,Character Education,Applied Learning,Community Service,Applied Learning,Supplies,highest poverty,Grades 6-8,9,380.88,464.49,12,t,f,8/22/09,f,f,t,t,t,t,t,f,91,0,18
0c70b75f9489ae7db0392ce3bf6dd728,3ed051544598a8470a9740de5e0eb080,bb4834fb9c6bd63e9e6eca65807c766f,4.70294E+11,35.118306,-90.027529,Memphis,TN,38106,urban,Memphis City School District,Shelby,f,f,f,f,f,f,Mrs.,f,f,Gym & Fitness,Health & Sports,Mathematics,Math & Science,Supplies,highest poverty,Grades 3-5,35,405.06,476.54,300,t,f,4/17/11,f,,f,,f,,,,,,
0c705e1351f8e919d9bc7f1ceaf9f794,3c29aca369c99265006dc95e105ad2e0,bf4a1e2638961d65acd7b50092678032,4.8285E+11,33.570049,-101.813629,Lubbock,TX,79404,urban,Lubbock Ind School District,Lubbock,f,t,f,f,f,f,Ms.,f,f,Literature & Writing,Literacy & Language,Literacy,Literacy & Language,Books,highest poverty,Grades 6-8,35,248.45,292.29,90,t,f,6/23/11,f,t,t,t,f,f,t,f,40,3,2
0c70376d7f05a352ee10864b86dfd128,72caab8aea707062807673b7d4b68983,a1eaaadec49e29b70b96460615149e4c,62271008887,34.04366,-118.371449,Los Angeles,CA,90035,urban,Los Angeles Unif Sch Dist,Los Angeles,f,t,f,f,f,f,Ms.,f,f,Foreign Languages,Literacy & Language,,,Technology,high poverty,Grades 9-12,35,334.65,393.71,180,t,f,1/15/12,f,t,t,t,f,t,t,f,54,1,12
0c7023c446908b174e4ea2447532bac4,f7fa4d4895e6f811f62b94d814e2b3f7,4d97922b8cd7afb6b95b1350c2b4f4fe,2.803E+11,30.412789,-88.55337,Moss Point,MS,39563,suburban,Moss Point School District,Jackson,f,f,f,f,f,f,Ms.,f,f,College & Career Prep,Applied Learning,,,Supplies,highest poverty,Grades 9-12,30,576.85,678.65,30,f,f,9/18/12,f,f,t,f,f,f,t,f,0,0,1
0c70167610e6d5be092a596b2ea9c467,b41d4d42207a4ae5239d3f8ba4f49d8d,5e4806784a7ea3ab3edf55afb3a97a89,,40.80205,-73.93631,New York,NY,10035,urban,New York Dept of Education,New York (Manhattan),t,f,f,f,f,f,Ms.,f,f,Literacy,Literacy & Language,Literacy,Literacy & Language,Books,highest poverty,Grades PreK-2,9,148.99,181.7,45,t,f,8/14/09,f,f,t,t,f,f,f,f,0,0,2
0c6fe6acf2631f6911a2c099a3fb7708,2f45e1ac506c83339df9626abc740dcf,f6e4ce7abd744e865868292dcdf89b7c,4.70318E+11,36.095509,-86.802544,Nashville,TN,37204,,Metro Nashville Pub Sd,Davidson,f,f,f,f,f,f,Ms.,f,f,Mathematics,Math & Science,Mathematics,Math & Science,Technology,moderate poverty,Grades 6-8,9,802.62,978.8,200,t,f,9/1/09,f,,f,,f,,,,,,
0c6fc145eb944d1bde2c42636dbbc495,0f6ba939b9a7abb49e765ab865608f0c,2659ba721aae9b59f6931521829a9b1c,1.30213E+11,33.343315,-84.516108,Fayetteville,GA,30215,rural,Fayette Co School District,Fayette,f,f,f,f,f,f,Mr.,f,f,Environmental Science,Math & Science,Other,Applied Learning,Supplies,moderate poverty,Grades 9-12,30,466.2,548.47,250,f,f,9/16/12,f,f,f,f,t,f,f,f,100,0,1
0c6fb992e2d5e6960aa44162afbade63,82e6cfea8facd71f19b5a376058e8827,2b3fee59cd07ca092b81c517a0122379,4.70231E+11,35.724617,-89.555262,Ripley,TN,38063,,Lauderdale Co School District,Lauderdale,f,f,f,f,f,f,Ms.,f,f,Health & Life Science,Math & Science,Environmental Science,Math & Science,Supplies,highest poverty,Grades PreK-2,35,471.16,541.56,20,t,f,7/27/10,f,f,t,t,t,t,t,f,66,0,5
0c6f8751b81e1710db46f9ca8549313f,60a0f017bce7a7e8210995403fd8f69c,9b58a357ec3d4aab170e56508229b894,3.70001E+11,35.020593,-78.909646,Fayetteville,NC,28306,,Cumberland Co School District,Cumberland,f,f,f,f,f,f,Mrs.,t,f,Literacy,Literacy & Language,Community Service,Applied Learning,Books,highest poverty,Grades 3-5,35,231.47,266.06,25,t,f,3/28/10,f,,f,,f,,,,,,
0c6f4a6ee5d4384c85a395ac77915759,8d38dcb0ade76d6f44710b124635a00d,c7cbc2446dd903e58b6d7d0b0107c3a4,,33.921778,-118.308974,Los Angeles,CA,90047,,Los Angeles Unif Sch Dist,Los Angeles,t,f,f,f,f,t,Ms.,f,f,Literacy,Literacy & Language,,,Books,high poverty,Grades 6-8,30,469.62,552.49,50,t,f,10/7/12,f,f,f,f,f,f,f,f,0,0,1
0c6f1050612852f7a4a223a1b651866a,05aef15224d28b806a459404430c667f,f1e04e5b43783008694b8944f20a29f3,2.6258E+11,43.257844,-86.26741,N Muskegon,MI,49445,suburban,North Muskegon Pub School Dist,Muskegon,f,f,f,f,f,f,Mrs.,f,f,Literacy,Literacy & Language,,,Books,moderate poverty,Grades PreK-2,30,489.74,576.16,22,f,f,6/22/13,f,t,t,t,f,f,t,f,50,3,2
0c6edc1138f7ba6f52ce7d8f4768ee1a,22f4f7dad4073b3908da57638ae731c7,b17ac212e00ca684b708c31abad49a35,2.40009E+11,39.293392,-76.588417,Baltimore,MD,21231,urban,Baltimore City Public Sch Dist,Baltimore City,f,f,f,f,f,f,Mr.,f,f,Mathematics,Math & Science,Literacy,Literacy & Language,Technology,highest poverty,Grades 6-8,30,439.74,517.34,150,f,f,10/20/12,f,f,t,t,f,t,t,f,40,0,9
0c6ed3bbd996369edc6aca64d9617bc5,d450ddd674bc84a6e278faadd3c02167,b8811f52f99b0ae4f09c53c8ac1b297b,1.70993E+11,42.007207,-87.778206,Chicago,IL,60646,urban,O'hare Elementary Network,Cook,f,t,f,f,f,f,Ms.,f,f,Visual Arts,Music & The Arts,Social Sciences,History & Civics,Supplies,moderate poverty,Grades 3-5,30,666.85,784.53,60,f,f,7/26/13,f,f,t,t,t,t,t,f,100,0,3
0c6ecd4cc93c19cb890b156127f88dc0,949b5c8d810c90354ba47722305fe6ea,a6298037073a7ffc1602aa839cf06c05,4.21899E+11,40.019407,-75.119488,Philadelphia,PA,19120,urban,Philadelphia City School Dist,Philadelphia,f,f,f,f,f,f,Mrs.,f,f,Literacy,Literacy & Language,Literature & Writing,Literacy & Language,Books,highest poverty,Grades PreK-2,9,393.86,480.32,20,f,f,9/6/09,f,f,t,t,f,t,t,f,33,0,6
0c6eac3fc9d007a203a03c13894d76ac,0716af669b98ea7d2d723224217b0cdb,9cf9ce8bb16b97ba2e3099990ca1e65f,2.40009E+11,39.307921,-76.579841,Baltimore,MD,21213,urban,Baltimore City Public Sch Dist,Baltimore City,f,f,f,t,f,f,Mrs.,f,f,Literacy,Literacy & Language,Special Needs,Special Needs,Other,highest poverty,Grades PreK-2,35,208.06,244.78,6,f,f,10/10/10,f,t,t,t,f,t,f,f,60,1,4
0c6ea67c184a43d8d9d6b399eaf75065,709d7c573dce4f567bda86e7c23896b1,60a43463fcdbb566f3f1f2b01f10d0ec,60591010753,37.954244,-121.736769,Brentwood,CA,94513,suburban,Brentwood Union Elem Sch Dist,Contra Costa,f,f,f,f,f,f,Ms.,f,f,Literature & Writing,Literacy & Language,Mathematics,Math & Science,Technology,moderate poverty,Grades PreK-2,30,1192.86,1403.36,25,f,f,10/21/13,f,f,t,f,f,f,t,f,0,0,1
0c6e59179a24384d305c488671a38f08,1bf924bb677fadfbbb6d3c945f112b46,85ea0e823ff7755526abc39305ba9395,1.72442E+11,42.109106,-87.829524,Northbrook,IL,60062,suburban,Northbrook-glenview SD 30,Cook,f,f,f,f,f,f,Ms.,f,f,Foreign Languages,Literacy & Language,Literacy,Literacy & Language,Books,low poverty,Grades 6-8,35,371.92,427.49,120,f,f,8/10/10,t,t,t,t,t,t,f,f,80,1,8
0c6e4d15cc357bd26fc7667f70ba6c31,808df2ecb45955ad3983132f8816bbe1,98840e438a41ab53a656abd5631a9f9f,1.20087E+11,27.940946,-82.385604,Tampa,FL,33619,suburban,Hillsborough Co Pub Sch Dist,Hillsborough,f,f,f,f,f,f,Mrs.,f,f,Literacy,Literacy & Language,Early Development,Applied Learning,Books,highest poverty,Grades PreK-2,9,284.11,346.48,18,f,t,2/11/10,f,f,t,t,f,t,t,f,50,0,3
0c6ddd386734c3b8ec8b8b875a02995f,a51824c4431d5cb30f9cc5b7e5c381b7,503c0198d4ef210e4f3503c8fe553eb9,90444000888,41.237889,-73.119475,Stratford,CT,6614,urban,Stratford Public Schools,Fairfield,f,f,f,f,f,f,Mrs.,f,f,Applied Sciences,Math & Science,Other,Applied Learning,Technology,moderate poverty,Grades 6-8,30,2442.28,2873.27,300,f,f,11/12/13,f,,f,,f,,,,,,
0c6dd4702d16989ae55e538213c232b4,924219650933862b29bc885da1c423d6,9231edfbd3aa42675e70e69aea8b0a36,1.70993E+11,41.745142,-87.717264,Chicago,IL,60652,urban,Midway Elementary Network,Cook,f,t,f,f,f,f,Ms.,f,f,Nutrition,Health & Sports,Health & Wellness,Health & Sports,Supplies,highest poverty,Grades 3-5,30,272.68,320.8,26,t,f,5/19/13,f,f,t,f,f,f,t,f,0,0,2
0c6db42adedc32a8b47754eb6bc3a2e9,820b80005bdffb74fe85e4deb11c5a07,bb477994115ad6275e95623e927c040e,3.41629E+11,40.231834,-74.777481,Trenton,NJ,8618,urban,Trenton School District,Mercer,f,f,f,f,f,f,Mr.,f,f,Environmental Science,Math & Science,,,Supplies,highest poverty,Grades 3-5,30,150.44,176.99,20,f,f,9/2/12,t,t,t,t,t,t,f,f,100,2,4
0c6da0ceb221eec5505b5e9b1375c054,bb717066b6851b329e748854754f4cee,6ac9cc7478e2bda55ebbf0ca7cf3d1ca,3.70282E+11,35.888758,-82.505584,Mars Hill,NC,28754,rural,Madison Co School District,Madison,f,f,f,f,f,f,Mrs.,f,f,Literature & Writing,Literacy & Language,Literacy,Literacy & Language,Other,high poverty,Grades PreK-2,17,518,631.71,24,f,f,9/6/07,f,,f,,f,,,,,,
0c6d98744cbec76c286d68469e820350,29f8e4c2abb3bf2b2fe268d853161c5f,d41cd2822ccd1e54ddb9179858abfa3e,5.10264E+11,36.996342,-76.421745,Newport News,VA,23607,urban,Newport News Public Schools,Newport News City,f,t,f,f,f,f,Mr.,f,f,Literacy,Literacy & Language,,,Books,highest poverty,Grades PreK-2,35,398.27,468.55,25,f,t,10/22/10,f,f,t,f,f,f,t,f,0,0,2
0c6d89ce92c03176538b0254d1912165,6fa24726c0d8f85d85f2d1be3c0b8785,1447aa7634aafb84e2819b49e187e8cb,2.91201E+11,38.811474,-90.300591,Florissant,MO,63033,suburban,Ferguson-florissant SD R2,St Louis,f,f,f,f,f,f,Mrs.,f,f,Literature & Writing,Literacy & Language,Special Needs,Special Needs,Technology,high poverty,Grades 6-8,30,883.88,1039.86,46,f,f,11/16/13,f,t,f,t,t,t,t,f,80,2,3
0c6d7a4beb917ff3caa133853be7098e,d4b8491b6d84cc36e58fe8238141311b,3981b2eb458cef8b171dada866a86ac6,2.6116E+11,42.287725,-83.222283,Dearborn,MI,48124,urban,Dearborn Public School Dist,Wayne,f,f,f,f,f,f,Mrs.,f,f,Mathematics,Math & Science,Early Development,Applied Learning,Other,moderate poverty,Grades PreK-2,35,338.18,397.86,75,f,f,8/10/11,f,f,t,t,f,t,t,f,50,0,3
0c6d187fff9ab5f82e928c38759a1633,e2370e335592c70fac228bdc346f39d5,614c9f6f4224b9d1c95525ea89435bb3,62160010755,37.923192,-121.752693,Brentwood,CA,94513,suburban,Liberty Union High Sch Dist,Contra Costa,f,f,f,f,f,f,Ms.,f,f,Special Needs,Special Needs,Other,Applied Learning,Technology,moderate poverty,Grades 9-12,9,347.24,423.46,11,f,f,4/10/10,f,f,t,t,f,t,t,f,50,0,17
0c6d06397caa0fae38c3365b883ddaee,3263093e150aaa9b4f796d59a5812607,3165c8eb8d3f8ecced4430bc91d1cbec,2.00507E+11,37.170801,-94.849881,Columbus,KS,66725,,Columbus Unified Sch Dist 493,Cherokee,f,f,f,f,f,f,Mr.,f,f,Other,Applied Learning,Environmental Science,Math & Science,Technology,high poverty,Grades 9-12,30,425.82,500.96,102,f,f,2/10/13,f,,f,,f,,,,,,
0c6cfd0fb2e3b802a8896d0f3871d78d,56ede6d47ab75369f0b8fd02a3ff066a,1b04e569e028e03cba9dffdcfe6d55f9,90279001386,41.305133,-72.902861,New Haven,CT,6513,urban,New Haven City School District,New Haven,f,t,f,f,f,f,Ms.,f,f,Health & Life Science,Math & Science,ESL,Literacy & Language,Books,highest poverty,Grades PreK-2,30,304.67,358.44,50,f,f,3/10/13,f,f,t,f,f,f,t,f,,0,1
0c6ce472613fb17487e1e74368bdd78c,cdfcea1f908a958c39a4fc6c4e30cb8c,50e32abb26e92671021b72d05d44461f,,34.053216,-118.306166,Los Angeles,CA,90006,urban,Los Angeles Unif Sch Dist,Los Angeles,f,f,t,f,f,f,Ms.,f,f,Special Needs,Special Needs,Early Development,Applied Learning,Supplies,high poverty,Grades PreK-2,30,450.45,529.94,8,t,f,11/14/12,f,,f,,f,,,,,,
0c6cc5812707a2e4976d152b38506015,00d5add5320f4c118eafb6e7a440542b,5cfb3a9b33434ab2b86f2d5cf89f7116,68450007058,33.699337,-117.789086,Irvine,CA,92604,urban,Irvine Unif School District,Orange,f,f,f,f,f,f,Ms.,f,f,Special Needs,Special Needs,Literacy,Literacy & Language,Technology,moderate poverty,Grades PreK-2,30,573.1,674.24,10,f,f,12/1/12,f,f,t,f,f,f,t,f,0,0,1
0c6ca431586ecb19634b921b9e450354,5672a1833924044083c8365c10792e12,d5d75e4fefcdf0724b0ee20e839d8ed7,5.10324E+11,37.563854,-77.499634,Richmond,VA,23226,,Richmond City School District,Henrico,f,f,f,f,f,f,Ms.,f,f,Mathematics,Math & Science,Early Development,Applied Learning,Supplies,moderate poverty,Grades PreK-2,17,119,145.12,22,f,f,1/30/08,f,f,t,t,t,t,f,f,100,0,6
0c6c873d67a489b2f84e204d5bed3ac8,0ce2b8427ccc0e4ebed5f5fd7c128a40,cbb8b96550620b4f25322657495c7184,80408000565,38.732825,-104.804099,Colorado Spgs,CO,80902,suburban,Fountain-fort Carson SD 8,El Paso,f,f,f,f,f,f,Ms.,f,f,Literacy,Literacy & Language,Literature & Writing,Literacy & Language,Technology,high poverty,Grades PreK-2,9,284.07,346.43,25,f,f,8/22/09,f,f,f,t,f,f,f,f,0,0,1
0c6bf06389bba7c3654052f699eebaec,daac12a25d74f2d14f78eb7314059b94,282351acf7da5b800c6cee5955c8dd9c,3.90451E+11,39.9628,-82.873474,Whitehall,OH,43213,suburban,Whitehall City School District,Franklin,f,f,f,f,f,f,Mrs.,f,f,Early Development,Applied Learning,,,Supplies,highest poverty,Grades PreK-2,30,857.87,1009.26,150,f,f,1/20/13,f,f,f,t,t,t,f,f,75,0,4
0c6bdd575f6df058fa71c76683d97bab,40251f0fe6b1b18073861f2f96bffb99,a43e999c4142ba6810015586113ccb5b,4.90036E+11,40.656585,-112.009597,Kearns,UT,84118,suburban,Granite School District,Salt Lake,f,f,f,f,f,f,Mrs.,f,f,Visual Arts,Music & The Arts,Literature & Writing,Literacy & Language,Supplies,high poverty,Grades PreK-2,35,339.34,399.22,25,f,t,11/12/11,f,f,t,t,f,t,t,f,0,0,3
0c6bbf3a6397d4281e60ab1081b66ee6,88aedc10e174c7f8649e9935421303b3,dfb7cb377e865b02825b7cbef0751ea7,3.70495E+11,36.205601,-81.244283,Millers Creek,NC,28651,,Wilkes Co School District,Wilkes,f,f,f,f,f,f,Mrs.,f,f,Applied Sciences,Math & Science,Mathematics,Math & Science,Supplies,highest poverty,Grades PreK-2,30,201.79,237.4,18,f,f,2/8/13,f,t,t,t,f,f,f,f,50,4,0
0c6bb23412f99b3a065677044b864265,e3dd80ec236332af11179c3741c3607d,c4e85988516dc81508a278c464d9e8ed,10000500889,34.253796,-86.223542,Albertville,AL,35950,rural,Albertville City School Dist,Marshall,f,f,f,f,f,f,Mrs.,f,f,Literacy,Literacy & Language,Character Education,Applied Learning,Other,highest poverty,Grades PreK-2,17,482,587.8,18,f,f,10/28/07,f,f,t,f,f,t,t,f,,0,4
0c6ba9e5effab06e554411b143951a26,21aa8cc0901dafb247326c17055827d5,6198e72e3ce4254dcd9a62e411a9682d,1.80477E+11,39.850327,-86.135155,Indianapolis,IN,46220,urban,Indianapolis Public Sch Dist,Marion,f,f,f,f,f,f,Mrs.,f,f,Mathematics,Math & Science,,,Other,highest poverty,Grades 3-5,30,430.5,506.47,60,t,f,7/27/13,f,,f,,f,,,,,,
0c6ba6b819e9bb96191f92e9041448dd,eb32ae8d58bf7abb1c3d567b2bdd548d,ee135c4d0a4c4a390c05cc3805a3c61c,3.60009E+11,40.691134,-73.941497,Brooklyn,NY,11221,urban,New York City Dept Of Ed,Kings (Brooklyn),f,f,f,f,f,f,Ms.,f,f,Literacy,Literacy & Language,ESL,Literacy & Language,Supplies,highest poverty,Grades PreK-2,,943,1150,20,f,f,8/24/06,f,f,t,f,f,f,t,f,,0,1
0c6ba55fc4bac0d6c9727556faaf4ea2,d7905cbad0946bb10aaaebe517ff9eb7,13994c57bf0a1dcbc0f40155e1b67b76,61032001155,37.963152,-120.308697,Sonora,CA,95370,,Curtis Creek Elem Sch Dist,Tuolumne,f,f,f,f,f,f,Mrs.,f,f,Literacy,Literacy & Language,Mathematics,Math & Science,Supplies,high poverty,Grades PreK-2,30,303.58,357.15,22,f,f,8/25/12,t,t,t,t,t,t,t,f,83,2,9
0c6ba1937b2a2a3a3eae7b15209eabc2,e05e3f3fea8c4e39c0e66a50840561f7,d9a803803b5885ded7a2580d92de5ac9,1.90759E+11,41.859259,-92.357106,Amana,IA,52203,rural,Clear Creek Amana Cmty SD,Johnson,f,f,f,f,f,f,Mrs.,f,f,Literature & Writing,Literacy & Language,Other,Applied Learning,Technology,moderate poverty,Grades 6-8,35,778.57,915.96,145,f,f,11/17/10,f,,f,,f,,,,,,
0c6ba14c054022c6653136dfaf0e49c0,b1a17f6d7e51a15cc9289f45cd658c10,7739fcee15469d6b0646f4cf16a4e6b4,2.80348E+11,30.379355,-88.647137,Gautier,MS,39553,,Pascagoula School District,Jackson,f,f,f,f,f,f,Mrs.,f,f,Other,Applied Learning,Other,Applied Learning,Supplies,highest poverty,Grades PreK-2,17,134,163.41,24,f,f,11/12/07,f,f,t,t,f,f,t,f,,0,2
0c6b9815f5b7a8b3c2821b8f279e394c,afacf5ed4484638b50d2cbbe821792af,cc067884e2a5af906ca2867160108ee6,1.30012E+11,33.833096,-84.407417,Atlanta,GA,30305,urban,Atlanta Public Schools,Fulton,f,f,f,f,f,f,Ms.,f,f,Mathematics,Math & Science,,,Technology,high poverty,Grades 6-8,30,1374.16,1616.66,120,f,f,10/20/13,f,f,t,f,f,f,t,f,0,0,1
0c6b8e775c616f444d5af3c484cf6ba9,46822c9f0e72edde9b2488048530d3cd,1b3665854ef31dfc016807cc687ae5a2,3.70048E+11,35.732048,-81.70077,Morganton,NC,28655,rural,Burke Co School District,Burke,f,f,f,f,f,f,Mr.,f,f,Literacy,Literacy & Language,ESL,Literacy & Language,Technology,high poverty,Grades 3-5,30,479.18,563.74,78,f,f,8/13/12,f,,f,,f,,,,,,
0c6b7cee97d8c2b70fe9b878469bdcb9,7f12e8ac32b561ec8aac897242f0d25e,c6534250f8ac686c2101e4a12dbbffd6,2.80471E+11,31.114568,-91.407021,Woodville,MS,39669,rural,Wilkinson Co School District,Wilkinson,f,f,f,f,f,f,Ms.,f,f,Health & Life Science,Math & Science,Mathematics,Math & Science,Supplies,highest poverty,Grades 3-5,35,318.69,374.93,66,f,f,10/13/11,f,f,f,t,t,f,f,f,100,0,2
0c6b79c60d511d47c702ac105b654d1f,31e2960dd7824fa351b8036b250aca5e,5dbe4f194ee7e682529e4e83cd96139f,4.70294E+11,35.060928,-89.813332,Memphis,TN,38119,urban,Memphis City School District,Shelby,f,f,f,f,f,f,Ms.,t,f,Sports,Health & Sports,Gym & Fitness,Health & Sports,Supplies,highest poverty,Grades PreK-2,30,434.92,511.67,20,f,f,2/3/13,f,,f,,f,,,,,,
0c6b5735a163a02bd99873de4710ee0a,5a6acc6bb7464c5ea00c7ddb27f5be65,2658bbe628c43cf771270479c76a8126,61674002124,37.625178,-122.090671,Hayward,CA,94545,urban,Hayward Unified School Dist,Alameda,f,f,f,f,f,f,Mr.,f,f,Visual Arts,Music & The Arts,,,Technology,high poverty,Grades 9-12,35,897.36,1055.72,200,t,f,2/1/11,f,f,t,f,f,f,t,f,0,0,2
0c6b4fdf7920d8ac67c569ab89790628,e09f66f7db4697dd1903d0b6f370ea01,72f944498adab2c441f243a55ec44aec,62724004133,33.655113,-117.933281,Costa Mesa,CA,92627,urban,Newport Mesa Unified Sch Dist,Orange,f,f,f,f,f,f,Mrs.,f,f,Literature & Writing,Literacy & Language,ESL,Literacy & Language,Supplies,highest poverty,Grades PreK-2,30,178.22,209.67,22,f,f,11/3/13,f,f,t,t,t,t,t,f,100,0,4
0c6b3608a5485d995e5e1a117b863f51,8de7dfab2a356f2316b9af2be0a14cf7,73b8e702d623d6e6cbf4c5b44958173d,20071000338,59.060099,-160.391884,Togiak,AK,99678,rural,Southwest Region School Dist,Dillingham,f,f,f,f,f,f,Mr.,f,f,Mathematics,Math & Science,Applied Sciences,Math & Science,Books,highest poverty,Grades 9-12,30,488.61,574.84,35,f,f,9/21/13,t,t,t,t,t,f,t,f,100,1,1
0c6b069e1fa754533885555b5236c9e8,a97e3295de354068726ddc6d17e5c6aa,b4142001f43accbc4f4c44fbacc9d7b4,3.60009E+11,40.690002,-73.989372,Brooklyn,NY,11201,urban,New York City Dept Of Ed,Kings (Brooklyn),f,f,f,f,f,f,Mrs.,f,f,History & Geography,History & Civics,Literature & Writing,Literacy & Language,Trips,low poverty,Grades 9-12,,856,1043.9,0,f,f,1/30/03,f,f,t,t,f,f,t,f,,0,1
0c6acf95b33294e8383618c9628fe596,e47d74fe359d9bab280db1ebb12ce592,130233782a6671aa330c45fc7bced23f,1.30123E+11,33.570923,-84.360443,Morrow,GA,30260,suburban,Clayton Co Public Schools,Clayton,f,f,f,f,f,f,Ms.,f,f,History & Geography,History & Civics,Environmental Science,Math & Science,Technology,highest poverty,Grades 3-5,30,285.87,336.32,80,t,f,11/18/13,f,f,t,t,t,t,t,f,100,0,5
0c6acb24db794384b3085428a730c53a,67d30fe53f089c62410a5f22757d9d5d,27978274618ca9d2affa6861a144604a,3.6001E+11,40.706825,-73.920003,Brooklyn,NY,11237,urban,New York City Dept Of Ed,Kings (Brooklyn),f,t,f,f,f,f,Mr.,f,f,Special Needs,Special Needs,Extracurricular,Applied Learning,Technology,highest poverty,Grades 6-8,35,249.98,294.09,600,f,t,10/6/10,f,t,t,t,f,f,t,f,50,1,2
0c6ab148e1c375b2d5b6b149470a68c2,4fe97d2c9e5676bcd8e64df423f9af4b,cc044ea0dcc878a90d63042d82955ff6,3.70336E+11,35.680729,-81.222298,Newton,NC,28658,suburban,Newton-conover City Sch Dist,Catawba,f,f,f,f,f,f,Mrs.,f,f,Environmental Science,Math & Science,,,Supplies,highest poverty,Grades PreK-2,35,311.82,366.85,18,f,f,10/9/10,f,f,f,f,f,f,f,f,0,0,1
0c6aa02bb148acd39863a873e36a3d31,c6ec16f8ad52ae66b7235722848c979a,9d4b16b9bb40835a8624824059e3a585,4.84107E+11,30.245866,-95.196492,Splendora,TX,77372,rural,Splendora Ind School District,Montgomery,f,f,f,f,f,f,Ms.,f,f,Performing Arts,Music & The Arts,,,Technology,highest poverty,Grades 9-12,35,300.74,345.68,130,f,t,5/24/10,f,f,t,t,f,t,t,f,33,0,3
0c6a8da7fbbd4250385afc12331cebaa,9fd30950c08a9dee432a90e0608f3db9,d7bfedaa6546f8f3b93fa0b46bbb1d76,62271002857,34.189352,-118.505846,Lake Balboa,CA,91406,urban,Los Angeles Unif Sch Dist,Los Angeles,t,t,f,f,f,f,Mrs.,f,f,Character Education,Applied Learning,,,Trips,highest poverty,Grades 9-12,,3259,3974.39,6,f,f,9/25/06,f,f,t,f,f,f,t,f,,0,1
0c6a7219ec2d25d0d1e2c2ef6404a4cc,5b3967d625730187b5bcceb5df274172,1691d840fc6b69cc87d1aa529439adeb,3.50006E+11,35.17651,-106.734855,Albuquerque,NM,87114,,Albuquerque Pub School Dist,Bernalillo,f,f,f,f,f,f,Mrs.,f,f,Applied Sciences,Math & Science,Mathematics,Math & Science,Technology,moderate poverty,Grades 6-8,35,110.87,130.44,250,f,f,1/28/12,f,f,t,f,t,f,t,f,100,0,1
0c6a54c28dc9125298bbf11e29054c49,430e21776c07213ddff50733826a409f,d9f11fd89ab252f0eda3fa4e4a1a9b8d,62271003299,34.152603,-118.386612,N Hollywood,CA,91602,urban,Los Angeles Unif Sch Dist,Los Angeles,f,f,f,f,f,f,Ms.,f,f,Mathematics,Math & Science,Environmental Science,Math & Science,Supplies,high poverty,Grades 6-8,30,282.9,332.82,95,f,f,4/27/13,f,f,t,f,f,f,f,f,,0,1
0c6a306f617da2649b12f28faa750b3a,99aa3c6b33c281f86d4c46d3272f3803,6395d245068313460d5a38e25bc48e37,4.01074E+11,35.410543,-99.406567,Elk City,OK,73644,,Elk City School District 6,Beckham,f,f,f,f,f,f,Mrs.,f,f,Early Development,Applied Learning,,,Other,high poverty,Grades PreK-2,35,493.73,580.86,25,t,f,9/2/11,f,f,t,f,f,f,t,f,0,0,1
0c6a2101b453cce3892787eef0604ad6,231e91209d288a16b56f825a721973f9,b65ea76fa63182c77fc54bcf57eb37fb,50828000553,35.824153,-90.717914,Jonesboro,AR,72401,urban,Jonesboro Public Schools,Craighead,f,f,f,f,f,f,Mrs.,f,f,Applied Sciences,Math & Science,Literature & Writing,Literacy & Language,Books,highest poverty,Grades 6-8,30,625.51,735.89,75,f,f,8/29/12,f,f,t,f,f,f,t,f,0,0,1
0c69e34f33242d808296171c1d006a1b,77f17b89a17db6d24e3bb6bfe9d9f910,4766ce6a36e24563677e66ad1ed61acd,3.60972E+11,40.723145,-73.174488,East Islip,NY,11730,suburban,East Islip Union Free SD,Suffolk,f,f,f,f,f,f,Mrs.,f,f,Health & Life Science,Math & Science,Mathematics,Math & Science,Supplies,low poverty,Grades 3-5,35,400.77,471.49,500,t,f,12/5/10,f,f,t,t,t,t,t,f,70,0,42
0c699bc60eec87ad845e699d8f6fba9c,a12b58c8e3b7d723e94b5f9d398d85e1,f17b5b5d91ac6edb395ae2ec4afd5251,2.92928E+11,38.610046,-90.219055,Saint Louis,MO,63104,urban,St Louis City Public Sch Dist,St Louis City,f,t,f,f,f,f,Mrs.,f,f,Performing Arts,Music & The Arts,Community Service,Applied Learning,Technology,highest poverty,Grades 9-12,30,555.25,653.24,300,t,f,10/6/13,f,f,t,t,t,t,t,f,75,0,5
0c6983f9721f7f88490f0cb482b95a19,bf5f3f497f685bc49b44b1fec601b952,b172c75331c979aafa56ba2e747cbbd8,90006001020,41.332563,-73.058921,Ansonia,CT,6401,suburban,Ansonia City School District,New Haven,f,f,f,f,f,f,Mrs.,f,f,Other,Applied Learning,,,Supplies,high poverty,Grades PreK-2,35,847.24,996.75,25,f,f,1/8/12,f,,f,,f,,,,,,
0c69808c90287b0b73ad4ca101335d04,f4a7ef02d5450114d30771e43dfc8955,cbcadc2d20a06c66ddbdb8b356e4a650,62271007765,33.887645,-118.296087,Gardena,CA,90247,urban,Los Angeles Unif Sch Dist,Los Angeles,f,f,f,f,f,f,Ms.,f,f,Special Needs,Special Needs,Early Development,Applied Learning,Technology,highest poverty,Grades PreK-2,35,416.29,489.75,25,t,f,2/1/12,f,f,t,f,f,f,t,f,0,0,1
0c696ef9a7c9f787a748e128e44c0c51,5c6b34c3eef6477b365e21db7284230a,bf61b743f64d4eb0d7afbc3b4dba4077,62271003072,34.196636,-118.591705,Canoga Park,CA,91303,urban,Los Angeles Unif Sch Dist,Los Angeles,f,f,t,f,f,f,Ms.,f,f,Literacy,Literacy & Language,,,Books,high poverty,Grades PreK-2,35,327.54,385.34,24,t,f,1/19/12,f,f,t,t,f,t,t,f,8,0,15
0c6966a71e03aebbd0a36d873e042b9b,97a7e9f16015c714d26fdafac614e7e4,42d1c5c9fb87e27f3becdaefb302f3af,62805012648,37.814133,-122.287361,Oakland,CA,94607,urban,Oakland Unified School Dist,Alameda,t,f,f,f,f,f,Mrs.,f,f,Health & Life Science,Math & Science,Social Sciences,History & Civics,Supplies,highest poverty,Grades 3-5,30,398.98,469.39,30,f,t,6/8/13,f,f,t,t,f,t,t,f,50,0,4
0c6936ddf086791a4ea56a0448782876,635519b78e7e39d56eb2de0770fe8aba,a9e17b50d470faefa30f89686a577236,3.20006E+11,36.123173,-115.140373,Las Vegas,NV,89169,,Clark Co School District,Clark,f,f,f,f,f,f,Ms.,t,f,Early Development,Applied Learning,ESL,Literacy & Language,Books,highest poverty,Grades PreK-2,30,191.31,225.07,44,t,f,8/21/13,f,t,t,t,f,t,f,t,0,1,12
0c691688cfdb25592009b1feb840f57f,a39d0ade06dc251e5139f24df0e95984,6e1e394350e65c535954a3117087f861,4.50201E+11,32.989408,-80.205646,Summerville,SC,29485,rural,Dorchester Co School Dist 2,Dorchester,f,f,f,f,f,f,Mrs.,f,f,Music,Music & The Arts,Performing Arts,Music & The Arts,Supplies,high poverty,Grades 3-5,35,127.32,149.79,500,f,f,5/1/12,f,t,t,t,f,t,f,f,50,1,3
0c69110f009ecfe9e080a05ff5dca79e,7eb7b1cefabd527c24d0fdbb4ad787cb,7db1a72f11089998a38ca1bc2763a06a,62271003459,34.04784,-118.43042,Los Angeles,CA,90025,urban,Los Angeles Unif Sch Dist,Los Angeles,t,f,f,f,f,f,Mrs.,f,f,Literature & Writing,Literacy & Language,Social Sciences,History & Civics,Technology,low poverty,Grades PreK-2,35,378.94,445.81,25,f,f,1/17/12,f,f,t,t,t,t,t,f,66,0,20
0c690b7ed3ef7cc8a94ce842c16b133d,6223790ac83df4dd408fc09856f3a25b,1b4c4df76a0d52a9454e0508ef349498,1.81011E+11,39.160381,-87.212532,Jasonville,IN,47438,,Msd Of Shakamak,Greene,f,f,f,f,f,f,Mrs.,f,f,Literacy,Literacy & Language,,,Other,high poverty,Grades PreK-2,17,138,168.29,20,f,f,8/5/07,f,f,t,t,f,t,f,f,,0,3
0c68edff5f582ddfd8bd55ce17991c2d,706361f7a81d406be03a09f364003b70,5955a5ddd3e3736fb82bf91694a0eb1b,1.20111E+11,30.452251,-84.266602,Tallahassee,FL,32308,urban,Leon Co School District,Leon,f,f,f,f,f,f,Ms.,f,f,Applied Sciences,Math & Science,Health & Life Science,Math & Science,Supplies,high poverty,Grades 3-5,35,675.87,795.14,20,f,f,6/19/12,f,,f,,f,,,,,,
0c68dc349e31165d5b104a737cbb1595,a1974263b554e4eb736d97e5bf888af3,e9acfe25f3de87ed38ed327f8e4b92d1,,41.606907,-81.526673,Euclid,OH,44123,suburban,Ohio Department of Education,Cuyahoga,t,f,f,f,f,f,Mr.,f,f,Literature & Writing,Literacy & Language,Literacy,Literacy & Language,Books,highest poverty,Grades 9-12,35,313.68,369.04,75,t,f,3/3/11,f,f,f,t,t,f,f,f,100,0,2
0c68c6876700df174582472994783103,e3b17ec5a4a28e10dbacee80577e6577,32de9ca1cf7ea4f62c9297b254d449d2,5.1018E+11,37.015999,-76.374863,Hampton,VA,23661,urban,Hampton City School District,Hampton City,f,f,t,f,f,f,Ms.,f,f,Literacy,Literacy & Language,Special Needs,Special Needs,Technology,highest poverty,Grades PreK-2,35,551.08,648.33,14,f,f,2/11/12,f,t,f,t,t,t,f,f,62,2,4
0c68ba0c7ceb5d2b448110e2b2525b53,842c588fc21976bcc7baa7af5af51c2d,4e35c64f337f139fe0278f0860110da6,63459005700,37.363526,-121.912341,San Jose,CA,95110,urban,San Jose Unified School Dist,Santa Clara,t,f,f,f,f,f,Ms.,t,f,Literacy,Literacy & Language,,,Books,highest poverty,Grades PreK-2,30,301.62,354.85,20,f,f,9/30/13,f,t,t,t,f,f,f,f,25,3,2
0c689e2378ecd3549146941d68775e18,65e0df1afafa3c7ef2dffebc00dee736,90df9e625d63c533df0cf046dc2731f2,2.40009E+11,39.283348,-76.568631,Baltimore,MD,21224,urban,Baltimore City Public Sch Dist,Baltimore City,t,f,f,t,f,f,Mr.,t,f,History & Geography,History & Civics,Civics & Government,History & Civics,Supplies,highest poverty,Grades 6-8,30,403.6,474.82,100,f,t,12/4/12,f,f,t,t,f,f,t,f,50,0,2
0c67aa98c70a1219f76fd6a55100e284,7e89e302903ee5a1c917ff49220fd2c1,bb3c911da0026b545491e53ee91a144e,63432011390,32.71719,-117.118469,San Diego,CA,92102,urban,San Diego Unified School Dist,San Diego,t,f,f,f,f,f,Mr.,f,f,Literacy,Literacy & Language,Mathematics,Math & Science,Technology,highest poverty,Grades 3-5,9,662,807.32,40,t,f,5/23/09,f,f,t,f,f,f,t,f,0,0,2
0c67929e639df96ec062098a8ed9465a,3300bfc351fbd590eebda5179388b8de,6fb59c10909d67b71131e36169c774dc,62091002516,37.928303,-122.523483,Corte Madera,CA,94925,suburban,Larkspur School District,Marin,f,f,f,f,f,f,Ms.,f,f,Literacy,Literacy & Language,Special Needs,Special Needs,Technology,low poverty,Grades PreK-2,9,592,721.95,20,f,f,6/26/09,f,f,f,t,t,f,f,f,100,0,1
0c678b3fbc0f0cdefb9117571c712ecd,4410a8f19b092d78f811cb24e398084c,5d88809a1e79399b214226a894e5cc66,2.62883E+11,42.951297,-82.438122,Port Huron,MI,48060,suburban,Port Huron Area School Dist,St Clair,f,f,f,f,f,f,Mrs.,f,f,Extracurricular,Applied Learning,Applied Sciences,Math & Science,Technology,high poverty,Grades 9-12,30,2085,2452.94,17,f,t,11/16/13,f,t,f,t,f,f,f,f,0,2,0
0c677a1161ec41c03c3fa61b30a24e3a,4bfafa76a26c3cf93d4e54d26310a09a,094043423091ed2616c7de03123f6b1a,1.70993E+11,41.975848,-87.682589,Chicago,IL,60625,urban,Ravenswood-ridge Elem Network,Cook,f,t,f,f,f,f,Mrs.,f,f,Literacy,Literacy & Language,Special Needs,Special Needs,Other,highest poverty,Grades 3-5,35,190.67,224.32,7,f,f,8/21/10,f,f,t,t,t,t,f,f,66,0,10
0c67651fa445aa2cd2e53283fb5bdd2e,67183b0e4a6e966a8ac56dfb6d8a63c9,ef11b816b007cb90f2180bc5078a7adc,4.20228E+11,40.59031,-75.455982,Allentown,PA,18103,urban,Allentown City School District,Lehigh,f,f,f,f,f,f,Mrs.,f,f,History & Geography,History & Civics,,,Supplies,highest poverty,Grades 3-5,35,715,841.18,125,f,f,1/7/12,f,t,f,t,t,t,f,f,100,1,4
0c6755548e77f9a9edd058e55e349476,820b80005bdffb74fe85e4deb11c5a07,bb477994115ad6275e95623e927c040e,3.41629E+11,40.231834,-74.777481,Trenton,NJ,8618,urban,Trenton School District,Mercer,f,f,f,f,f,f,Mr.,f,f,Sports,Health & Sports,Extracurricular,Applied Learning,Other,highest poverty,Grades 6-8,30,326.57,384.2,50,f,f,9/2/12,t,t,t,t,t,t,t,f,85,3,5
0c66dfb283a9642fb5143014dba8794d,5559dd13e525ddeb806eef5766ae389f,c20bb1461882cca08026aeb641a0db4c,1.70993E+11,41.765977,-87.653093,Chicago,IL,60621,urban,Englewood-gresham Elem Network,Cook,f,f,t,f,f,f,Ms.,f,f,Special Needs,Special Needs,,,Technology,highest poverty,Grades 3-5,,475.6,580,15,f,f,9/12/06,f,f,t,f,f,f,t,f,,0,2
0c66aa00f0eed81a188e36b127c6625e,411f88f8c80871150928bc9fbea11223,e25dd2fca4dfc28382880a423873b3ef,,36.170371,-115.054393,Las Vegas,NV,89110,,Clark Co School District,Clark,f,f,f,f,f,f,Ms.,f,f,Literacy,Literacy & Language,Special Needs,Special Needs,Other,highest poverty,Grades PreK-2,35,166.11,195.42,25,t,f,4/29/12,t,t,t,t,t,t,f,f,80,1,6
0c66a97e3d9d30f23848b135fd0066c6,03baa3e3245ba3a6b2490a9d44ad2c69,d5b82ad9ba7785d0ccbfe25cdaf370a8,61623002023,32.756368,-117.039171,La Mesa,CA,91941,suburban,Grossmont Union High Sch Dist,San Diego,t,f,f,f,f,f,Mrs.,f,f,Health & Life Science,Math & Science,,,Supplies,high poverty,Grades 9-12,35,505.65,594.88,95,t,f,11/10/10,f,t,t,t,f,f,t,f,50,2,2
0c6691935eabacdb2fa351fdfcb6c1ec,9699f84a28179fbbbfe09733cedfa8f7,36ccb7d53d2cd43955b57bdfa2402fe2,,29.658207,-95.257278,Houston,TX,77017,urban,Texas Dept of Education,Harris,t,f,f,f,f,f,Mr.,f,f,Visual Arts,Music & The Arts,,,Supplies,highest poverty,Grades 9-12,35,712.96,838.78,600,f,f,2/19/12,f,,f,,f,,,,,,
0c668ca6ffb51e8698d73d7c3b1e0eb3,ad65dea85221ba33e866366ee8d147f7,d4b2641acc642c7ad13f59332025c42b,4.10888E+11,45.210384,-122.79718,Aurora,OR,97002,rural,North Marion School Dist 15,Marion,f,f,f,f,f,f,Ms.,f,f,Literature & Writing,Literacy & Language,,,Books,highest poverty,Grades 9-12,35,311.74,366.75,35,t,f,9/2/11,f,f,t,t,f,t,t,f,33,0,3
0c66629a720d28d45db8e2667e10e949,48321e160666af48a1bf2a526c3d6e12,04d96b690f1e3c2cf038151693f2c8e5,1.70462E+11,39.59421,-89.746274,Auburn,IL,62615,,Auburn Cmty Unit Sch Dist 10,Sangamon,f,f,f,f,f,f,Mrs.,f,f,Literacy,Literacy & Language,Music,Music & The Arts,Technology,high poverty,Grades PreK-2,35,402.21,473.19,16,f,f,11/7/10,f,f,f,t,t,t,t,f,66,0,5
0c6651caf38b065e79f0879f31046aa5,dfd4eaa0c7c0b0309da4ee95db150f9d,a37254fc8a987f80e3a0c05ec598fb13,5.30396E+11,47.333423,-122.051792,Kent,WA,98042,suburban,Kent School Dist 415,King,f,f,f,f,f,f,Mrs.,f,f,Environmental Science,Math & Science,,,Supplies,moderate poverty,Grades 9-12,30,749.45,881.71,100,f,f,10/10/13,f,f,t,f,t,f,t,f,100,0,2
0c664a5608ffcbbdcefec60405e1f118,ee38b569d9b09e0f0418e1529f01efad,fa551e40c6b098418c83937df589e2a6,1.80477E+11,39.753265,-86.190339,Indianapolis,IN,46221,urban,Indianapolis Public Sch Dist,Marion,f,f,f,f,f,f,Mrs.,f,f,Literature & Writing,Literacy & Language,College & Career Prep,Applied Learning,Supplies,highest poverty,Grades PreK-2,35,354.27,407.21,29,t,f,7/13/10,f,f,t,t,f,t,t,f,0,0,5
0c65da94232bcdd867b4da330b6b9037,e6c6b431eb7102c14d74614271b57d68,153813de18bbf319b447c2e9a8740943,3.40072E+11,40.911132,-74.177487,Paterson,NJ,7501,suburban,New Jersey Dept of Education,Passaic,t,f,f,f,f,f,Ms.,f,f,Literacy,Literacy & Language,Mathematics,Math & Science,Technology,high poverty,Grades PreK-2,30,231.98,272.92,20,t,f,8/23/13,t,t,t,t,t,t,t,f,83,1,10
0c657856b2344dd9b207d3b59768699b,c13678508203d3ec729de4c878754773,60dd350bd15b2544a424ceeb0d7cfd3a,4.50144E+11,32.853467,-79.991511,N Charleston,SC,29405,urban,Charleston Co School District,Charleston,f,f,f,f,f,f,Ms.,f,f,Literacy,Literacy & Language,Health & Life Science,Math & Science,Technology,highest poverty,Grades PreK-2,9,473.28,577.17,20,t,f,1/12/10,f,f,f,f,f,f,f,f,0,0,1
0c6575f35e99b443e2a0e40012260c70,593d6e85ab8d4cd16768201e6b64a6b9,b42acce6e8451b35c3221adf00e9d4d2,1.70993E+11,41.905878,-87.685692,Chicago,IL,60622,urban,Fulton Elementary Network,Cook,f,t,f,f,f,f,Ms.,f,f,ESL,Literacy & Language,,,Supplies,highest poverty,Grades PreK-2,,657.03,801.26,25,f,f,10/5/06,f,,f,,f,,,,,,
0c6567a77f8896a2a04ce7dd0bc401c7,df49aab6023a1a710f337f17b10dd7e3,cdfd3078c600a0fd1abe36184b47358f,63441007354,37.721759,-122.442949,San Francisco,CA,94112,urban,San Francisco Unified Sch Dist,San Francisco,t,f,f,f,f,f,Mr.,f,f,Literacy,Literacy & Language,,,Books,high poverty,Grades 9-12,9,160.07,195.21,80,f,f,6/16/10,f,f,t,t,t,f,t,f,100,0,2
0c655f06f40762a043054899792aaf9d,e230839ea1e888601e9270148f97aec5,28349da57fe954828a6a817a63d8f2b4,2.3105E+11,43.444344,-70.770838,Sanford,ME,4073,,Sanford School District,York,f,f,f,f,f,f,Ms.,f,f,Mathematics,Math & Science,Literacy,Literacy & Language,Technology,highest poverty,Grades 3-5,30,417.69,491.4,24,f,f,11/16/13,f,f,t,t,t,f,t,f,100,0,1
0c6557648fceeb0aa7c6f75312d729f5,18dd0e4fc4dd10671053bd91ef3a5d21,e7ccaf3eff3c5b964ab9f505d122feb3,4.02025E+11,35.334083,-97.469271,Moore,OK,73160,suburban,Moore School District I-2,Cleveland,f,f,f,f,f,f,Ms.,f,f,Music,Music & The Arts,,,Other,high poverty,Grades 6-8,30,863.3,1015.65,64,f,f,8/19/13,f,f,t,f,f,f,t,f,0,0,1
0c6554f36720215ecf4ca12ad1e416d3,2d8ed84ddbc1995f3e4f0f0af0e14a0a,05ee77f265fbb0fe98c8927710a5e81f,5.30585E+11,47.028835,-122.821869,Lacey,WA,98503,suburban,North Thurston School Dist 3,Thurston,f,f,f,f,f,f,Mrs.,f,f,Visual Arts,Music & The Arts,,,Supplies,moderate poverty,Grades 3-5,35,868.82,1022.14,700,f,f,9/6/10,f,t,t,t,f,t,t,f,55,2,26
0c6554941536d172e12741a95810002d,3147b03c53678c36aa59e914b8a942f0,cf26d248d91beb0d6bb82dda4f2f0340,3.60012E+11,40.676156,-73.880158,Brooklyn,NY,11208,urban,New York City Dept Of Ed,Kings (Brooklyn),f,f,f,f,f,f,Ms.,f,t,Literacy,Literacy & Language,Literature & Writing,Literacy & Language,Supplies,highest poverty,Grades 3-5,17,412,502.44,18,f,f,3/10/08,f,f,f,f,f,f,t,f,,0,1
0c65502a3a579072fe03abbeed742894,39d0af19e9ab76b1d5be5acc56769dd3,d766af8b7433a1f7b200ff3906218cc8,1.20039E+11,25.856266,-80.202332,El Portal,FL,33150,,Miami-dade Co Public Sch Dist,Miami-Dade,f,f,f,f,f,f,Ms.,f,f,Literature & Writing,Literacy & Language,,,Technology,highest poverty,Grades 6-8,30,610.38,718.09,150,f,f,9/8/13,f,f,t,t,f,t,t,f,50,0,5
0c6541d10408440321226dbf6dffaa06,0b7d601ba8610b11114d50147e420499,95beda041debd8bd517744ceb6115de4,62994004665,34.171056,-118.072039,Pasadena,CA,91107,urban,Pasadena Unified School Dist,Los Angeles,f,t,f,f,f,f,Ms.,f,f,Visual Arts,Music & The Arts,Literature & Writing,Literacy & Language,Supplies,moderate poverty,Grades 3-5,30,253.92,298.73,30,f,f,10/7/12,f,t,t,t,f,f,f,f,0,5,1
0c650cecaf84a23d9aa3b6f3e0d234f9,000ca45bc45d4c548cdc263f16e0f430,073bf904f1219589279c67e491d77b6c,1.20087E+11,28.053551,-82.404533,Tampa,FL,33617,,Hillsborough Co Pub Sch Dist,Hillsborough,f,f,f,f,f,f,Mrs.,f,f,Literacy,Literacy & Language,Literature & Writing,Literacy & Language,Supplies,highest poverty,Grades PreK-2,30,151.8,178.59,17,t,f,10/6/13,f,f,t,t,f,f,f,f,50,0,2
0c650a22c302531069a5018f3f26526c,57deb8007e442be7f1b28450eb584b36,fbb7b9a3e220abe1054cd48faac56d17,1.80366E+11,40.264759,-86.510852,Frankfort,IN,46041,rural,Community Schools Of Frankfort,Clinton,f,f,f,f,f,f,Ms.,f,f,Mathematics,Math & Science,Literacy,Literacy & Language,Technology,highest poverty,Grades 3-5,30,231.98,272.92,21,f,f,9/25/12,f,f,t,t,t,t,f,f,62,0,10
0c650979545cd36734521fe1a13ac727,9aec98bdc0a30998d5ce62f1d42fa492,9a8105ebd202696b9adcb36d953c1d68,2.40009E+11,39.318503,-76.546178,Baltimore,MD,21206,urban,Baltimore City Public Sch Dist,Baltimore City,f,f,f,f,f,f,Ms.,t,f,Mathematics,Math & Science,Special Needs,Special Needs,Technology,highest poverty,Grades 6-8,30,727.96,856.42,100,f,f,10/27/13,t,t,t,t,t,t,t,f,75,3,9
0c6507e2287f598b9925829477c19240,7eaffcf61e9ee46a80a55789beb3635c,df16e39f8370ca7576ac1fadeed571cd,5.50852E+11,43.111729,-89.328484,Madison,WI,53714,urban,Madison Metropolitan Sch Dist,Dane,f,f,f,f,f,f,Ms.,f,t,ESL,Literacy & Language,Early Development,Applied Learning,Books,highest poverty,Grades PreK-2,35,137.92,162.26,60,f,f,12/13/11,f,f,t,t,t,f,t,f,100,0,1
0c64e130bbd4a8a177343cd84e1622cc,3ded9eea208a066796c2d88d7e76ff2a,c8ae4c0593ba650caa8cbb97d815406f,3.61509E+11,40.887787,-73.395383,Huntington,NY,11743,suburban,Huntington Union Free Sch Dist,Suffolk,f,f,f,f,f,f,Ms.,f,f,Mathematics,Math & Science,,,Supplies,moderate poverty,Grades PreK-2,17,146,178.05,22,f,f,12/2/08,f,f,t,t,t,t,f,f,100,0,4
0c64c5f6e0502e7c563bfc46c1d8167e,92ff6ef3a357fa083dbfea65a276595d,e67ad957aa6de9f9584dd4cb1cbfb182,4.7E+11,36.194354,-83.264896,Morristown,TN,37813,,Hamblen Co Sch District,Hamblen,f,f,f,f,f,f,Mrs.,f,f,Other,Applied Learning,,,Other,highest poverty,Grades 9-12,30,194.42,228.73,4,f,f,1/6/13,f,f,t,t,t,f,t,f,100,0,2
0c647c45a5fcd1f3d9926d7546ea4a97,fc2a6fb04300ff60d87f66984f1a1720,46f7171e7eea41ca4e917496dea465e2,4.03024E+11,36.133304,-95.898403,Tulsa,OK,74129,urban,Tulsa Independent Sch Dist,Tulsa,f,t,f,f,f,f,Mr.,f,f,Music,Music & The Arts,,,Other,highest poverty,Grades 9-12,17,438,534.15,12,t,f,10/8/08,f,f,t,t,t,t,t,f,75,0,5
0c64607e39f82fd0e627ecaa66bf2fae,a2933e58c6b8e3f400a3c8ac525e70b9,003c33cba5325d987db929703508f053,4.82463E+11,30.920903,-94.011425,Jasper,TX,75951,,Jasper Ind School District,Jasper,f,f,f,f,f,f,Mrs.,f,f,Literacy,Literacy & Language,,,Technology,highest poverty,Grades 3-5,35,196.7,231.41,44,f,f,1/13/12,f,f,t,f,f,f,t,f,0,0,2
0c645b41a86576cf56f66783c548042c,9a38a37ab55d7e8f04ccb4fa21a5744b,d9862fd6af7e7f3462dcda86c43ee5ef,4.70018E+11,35.489636,-86.418223,Shelbyville,TN,37160,rural,Bedford Co School District,Bedford,f,f,f,f,f,f,Mrs.,f,f,History & Geography,History & Civics,Social Sciences,History & Civics,Technology,highest poverty,Grades 9-12,30,478.44,562.87,120,f,f,3/30/13,f,f,f,f,t,f,f,f,100,0,1
0c6424cf5b364654480ea64f52ae20e3,f365349b7e8d1dbe96163c577c54a654,afe0e23f63a966261d809aa38fe1072e,62949004545,36.986589,-121.919828,Aptos,CA,95003,suburban,Pajaro Valley Unif Sch Dist,Santa Cruz,f,f,f,f,f,f,Mrs.,f,f,Literature & Writing,Literacy & Language,Special Needs,Special Needs,Supplies,moderate poverty,Grades 3-5,35,388.86,457.48,11,f,f,10/16/10,f,f,f,t,f,t,f,f,40,0,5
0c6423046e816b37f83ac6914759f0fb,9ca9bf1182234fdecb40a711ceba1349,73453415411be146a0bbbeb9ee397c33,62271003347,34.252296,-118.432533,Pacoima,CA,91331,urban,Los Angeles Unif Sch Dist,Los Angeles,f,f,t,f,f,f,Mrs.,f,f,Literacy,Literacy & Language,,,Books,highest poverty,Grades PreK-2,35,244.87,288.08,23,t,f,12/18/11,f,f,t,t,t,t,t,f,66,0,3
